[{
    "place_name": "Sydney",
    "state_code": "NSW",
    "latitude": -33.8678,
    "longitude": 151.2073
  },
  {
    "place_name": "Haymarket",
    "state_code": "NSW",
    "latitude": -33.8787,
    "longitude": 151.2053
  },
  {
    "place_name": "Australia Square",
    "state_code": "NSW",
    "latitude": -33.8707,
    "longitude": 151.2068
  },
  {
    "place_name": "Grosvenor Place",
    "state_code": "NSW",
    "latitude": -33.8707,
    "longitude": 151.2068
  },
  {
    "place_name": "Royal Exchange",
    "state_code": "NSW",
    "latitude": -33.8707,
    "longitude": 151.2068
  },
  {
    "place_name": "Queen Victoria Building",
    "state_code": "NSW",
    "latitude": -33.8787,
    "longitude": 151.2053
  },
  {
    "place_name": "Sydney South",
    "state_code": "NSW",
    "latitude": -33.8787,
    "longitude": 151.2053
  },
  {
    "place_name": "Haymarket",
    "state_code": "NSW",
    "latitude": -33.8787,
    "longitude": 151.2053
  },
  {
    "place_name": "Darlinghurst",
    "state_code": "NSW",
    "latitude": -33.8794,
    "longitude": 151.2193
  },
  {
    "place_name": "Eastern Suburbs Mc",
    "state_code": "NSW",
    "latitude": -33.8693,
    "longitude": 151.2248
  },
  {
    "place_name": "Potts Point",
    "state_code": "NSW",
    "latitude": -33.8713,
    "longitude": 151.222
  },
  {
    "place_name": "Kings Cross",
    "state_code": "NSW",
    "latitude": -33.875,
    "longitude": 151.2223
  },
  {
    "place_name": "Woollahra",
    "state_code": "NSW",
    "latitude": -33.8878,
    "longitude": 151.2368
  },
  {
    "place_name": "Bondi Junction",
    "state_code": "NSW",
    "latitude": -33.8928,
    "longitude": 151.2472
  },
  {
    "place_name": "Double Bay",
    "state_code": "NSW",
    "latitude": -33.8778,
    "longitude": 151.2435
  },
  {
    "place_name": "Moore Park",
    "state_code": "NSW",
    "latitude": -33.9014,
    "longitude": 151.2138
  },
  {
    "place_name": "Eastern Suburbs Mc",
    "state_code": "NSW",
    "latitude": -33.8784,
    "longitude": 151.2313
  },
  {
    "place_name": "Broadway",
    "state_code": "NSW",
    "latitude": -33.9475,
    "longitude": 151.1522
  },
  {
    "place_name": "Southern Suburbs Mc",
    "state_code": "NSW",
    "latitude": -33.9475,
    "longitude": 151.1522
  },
  {
    "place_name": "Strawberry Hills",
    "state_code": "NSW",
    "latitude": -33.9475,
    "longitude": 151.1522
  },
  {
    "place_name": "Eveleigh",
    "state_code": "NSW",
    "latitude": -33.8956,
    "longitude": 151.1924
  },
  {
    "place_name": "Alexandria",
    "state_code": "NSW",
    "latitude": -33.9022,
    "longitude": 151.2004
  },
  {
    "place_name": "Waterloo",
    "state_code": "NSW",
    "latitude": -33.9167,
    "longitude": 151.2
  },
  {
    "place_name": "Rosebery",
    "state_code": "NSW",
    "latitude": -33.9167,
    "longitude": 151.2
  },
  {
    "place_name": "Camperdown",
    "state_code": "NSW",
    "latitude": -33.8897,
    "longitude": 151.1764
  },
  {
    "place_name": "Botany",
    "state_code": "NSW",
    "latitude": -33.946,
    "longitude": 151.1959
  },
  {
    "place_name": "Mascot",
    "state_code": "NSW",
    "latitude": -33.926,
    "longitude": 151.1935
  },
  {
    "place_name": "Kensington",
    "state_code": "NSW",
    "latitude": -33.9202,
    "longitude": 151.2224
  },
  {
    "place_name": "Unsw Sydney",
    "state_code": "NSW",
    "latitude": -33.925,
    "longitude": 151.2083
  },
  {
    "place_name": "Drummoyne",
    "state_code": "NSW",
    "latitude": -33.8524,
    "longitude": 151.1549
  },
  {
    "place_name": "Marrickville",
    "state_code": "NSW",
    "latitude": -33.9032,
    "longitude": 151.1518
  },
  {
    "place_name": "Kingsgrove",
    "state_code": "NSW",
    "latitude": -33.9393,
    "longitude": 151.0993
  },
  {
    "place_name": "Hurstville Bc",
    "state_code": "NSW",
    "latitude": -33.9687,
    "longitude": 151.1109
  },
  {
    "place_name": "Kingsgrove DC",
    "state_code": "NSW",
    "latitude": -33.9687,
    "longitude": 151.1109
  },
  {
    "place_name": "Kogarah",
    "state_code": "NSW",
    "latitude": -33.9833,
    "longitude": 151.1167
  },
  {
    "place_name": "Kogarah",
    "state_code": "NSW",
    "latitude": -33.9833,
    "longitude": 151.1167
  },
  {
    "place_name": "Miranda",
    "state_code": "NSW",
    "latitude": -34.0386,
    "longitude": 151.1001
  },
  {
    "place_name": "Hurstville",
    "state_code": "NSW",
    "latitude": -33.9799,
    "longitude": 151.0903
  },
  {
    "place_name": "Caringbah",
    "state_code": "NSW",
    "latitude": -34.0473,
    "longitude": 151.1205
  },
  {
    "place_name": "Sutherland",
    "state_code": "NSW",
    "latitude": -34.031,
    "longitude": 151.0553
  },
  {
    "place_name": "West Chatswood",
    "state_code": "NSW",
    "latitude": -33.794,
    "longitude": 151.1649
  },
  {
    "place_name": "Northbridge",
    "state_code": "NSW",
    "latitude": -33.8094,
    "longitude": 151.2222
  },
  {
    "place_name": "Milsons Point",
    "state_code": "NSW",
    "latitude": -33.846,
    "longitude": 151.2119
  },
  {
    "place_name": "Artarmon",
    "state_code": "NSW",
    "latitude": -33.8167,
    "longitude": 151.1833
  },
  {
    "place_name": "Crows Nest",
    "state_code": "NSW",
    "latitude": -33.8265,
    "longitude": 151.2019
  },
  {
    "place_name": "Crows Nest",
    "state_code": "NSW",
    "latitude": -33.8265,
    "longitude": 151.2019
  },
  {
    "place_name": "St Leonards",
    "state_code": "NSW",
    "latitude": -33.8234,
    "longitude": 151.1984
  },
  {
    "place_name": "Lane Cove",
    "state_code": "NSW",
    "latitude": -33.8157,
    "longitude": 151.1668
  },
  {
    "place_name": "Lane Cove",
    "state_code": "NSW",
    "latitude": -33.8157,
    "longitude": 151.1668
  },
  {
    "place_name": "Lane Cove DC",
    "state_code": "NSW",
    "latitude": -33.7554,
    "longitude": 151.1998
  },
  {
    "place_name": "Hornsby",
    "state_code": "NSW",
    "latitude": -33.7024,
    "longitude": 151.0993
  },
  {
    "place_name": "Hornsby Westfield",
    "state_code": "NSW",
    "latitude": -33.7,
    "longitude": 151.1
  },
  {
    "place_name": "Frenchs Forest",
    "state_code": "NSW",
    "latitude": -33.7482,
    "longitude": 151.2232
  },
  {
    "place_name": "Frenchs Forest",
    "state_code": "NSW",
    "latitude": -33.7482,
    "longitude": 151.2232
  },
  {
    "place_name": "Manly",
    "state_code": "NSW",
    "latitude": -33.798,
    "longitude": 151.2883
  },
  {
    "place_name": "Mona Vale",
    "state_code": "NSW",
    "latitude": -33.6776,
    "longitude": 151.3031
  },
  {
    "place_name": "Mona Vale",
    "state_code": "NSW",
    "latitude": -33.6776,
    "longitude": 151.3031
  },
  {
    "place_name": "North Ryde Bc",
    "state_code": "NSW",
    "latitude": -33.8151,
    "longitude": 151.1288
  },
  {
    "place_name": "North Ryde",
    "state_code": "NSW",
    "latitude": -33.7968,
    "longitude": 151.1244
  },
  {
    "place_name": "Gladesville",
    "state_code": "NSW",
    "latitude": -33.8333,
    "longitude": 151.1333
  },
  {
    "place_name": "Ryde",
    "state_code": "NSW",
    "latitude": -33.8188,
    "longitude": 151.1062
  },
  {
    "place_name": "West Ryde",
    "state_code": "NSW",
    "latitude": -33.8054,
    "longitude": 151.0739
  },
  {
    "place_name": "Northern Suburbs Mc",
    "state_code": "NSW",
    "latitude": -33.7554,
    "longitude": 151.1998
  },
  {
    "place_name": "Northern Suburbs Mc",
    "state_code": "NSW",
    "latitude": -33.7554,
    "longitude": 151.1998
  },
  {
    "place_name": "Northern Suburbs Mc",
    "state_code": "NSW",
    "latitude": -33.7554,
    "longitude": 151.1998
  },
  {
    "place_name": "Northern Suburbs Mc",
    "state_code": "NSW",
    "latitude": -33.7554,
    "longitude": 151.1998
  },
  {
    "place_name": "Northern Suburbs Mc",
    "state_code": "NSW",
    "latitude": -33.7554,
    "longitude": 151.1998
  },
  {
    "place_name": "Northern Suburbs Mc",
    "state_code": "NSW",
    "latitude": -33.7554,
    "longitude": 151.1998
  },
  {
    "place_name": "Northern Suburbs Mc",
    "state_code": "NSW",
    "latitude": -33.7554,
    "longitude": 151.1998
  },
  {
    "place_name": "Northern Suburbs Mc",
    "state_code": "NSW",
    "latitude": -33.7554,
    "longitude": 151.1998
  },
  {
    "place_name": "Northern Suburbs Mc",
    "state_code": "NSW",
    "latitude": -33.7554,
    "longitude": 151.1998
  },
  {
    "place_name": "Northern Suburbs Mc",
    "state_code": "NSW",
    "latitude": -33.7554,
    "longitude": 151.1998
  },
  {
    "place_name": "Ermington",
    "state_code": "NSW",
    "latitude": -33.8148,
    "longitude": 151.0547
  },
  {
    "place_name": "Rydalmere Bc",
    "state_code": "NSW",
    "latitude": -33.7613,
    "longitude": 151.0294
  },
  {
    "place_name": "Epping",
    "state_code": "NSW",
    "latitude": -33.7727,
    "longitude": 151.0818
  },
  {
    "place_name": "Epping",
    "state_code": "NSW",
    "latitude": -33.7727,
    "longitude": 151.0818
  },
  {
    "place_name": "Pennant Hills",
    "state_code": "NSW",
    "latitude": -33.7378,
    "longitude": 151.0722
  },
  {
    "place_name": "Seven Hills",
    "state_code": "NSW",
    "latitude": -33.7833,
    "longitude": 150.9333
  },
  {
    "place_name": "Parramatta",
    "state_code": "NSW",
    "latitude": -33.7613,
    "longitude": 151.0294
  },
  {
    "place_name": "Parramatta",
    "state_code": "NSW",
    "latitude": -33.7613,
    "longitude": 151.0294
  },
  {
    "place_name": "North Parramatta",
    "state_code": "NSW",
    "latitude": -33.7935,
    "longitude": 151.0012
  },
  {
    "place_name": "Baulkham Hills",
    "state_code": "NSW",
    "latitude": -33.7588,
    "longitude": 150.9929
  },
  {
    "place_name": "Castle Hill",
    "state_code": "NSW",
    "latitude": -33.7333,
    "longitude": 151
  },
  {
    "place_name": "Pennant Hills",
    "state_code": "NSW",
    "latitude": -33.7378,
    "longitude": 151.0722
  },
  {
    "place_name": "Seven Hills Mc",
    "state_code": "NSW",
    "latitude": -33.7613,
    "longitude": 151.0294
  },
  {
    "place_name": "St Marys",
    "state_code": "NSW",
    "latitude": -33.7613,
    "longitude": 151.0294
  },
  {
    "place_name": "Penrith South DC",
    "state_code": "NSW",
    "latitude": -33.7613,
    "longitude": 151.0294
  },
  {
    "place_name": "Ashfield",
    "state_code": "NSW",
    "latitude": -33.8883,
    "longitude": 151.1227
  },
  {
    "place_name": "Burwood",
    "state_code": "NSW",
    "latitude": -33.8833,
    "longitude": 151.1
  },
  {
    "place_name": "Silverwater",
    "state_code": "NSW",
    "latitude": -33.8334,
    "longitude": 151.0473
  },
  {
    "place_name": "Lidcombe",
    "state_code": "NSW",
    "latitude": -33.8644,
    "longitude": 151.0397
  },
  {
    "place_name": "Lidcombe",
    "state_code": "NSW",
    "latitude": -33.8644,
    "longitude": 151.0397
  },
  {
    "place_name": "Granville",
    "state_code": "NSW",
    "latitude": -33.8333,
    "longitude": 151.0167
  },
  {
    "place_name": "Granville",
    "state_code": "NSW",
    "latitude": -33.8333,
    "longitude": 151.0167
  },
  {
    "place_name": "Auburn",
    "state_code": "NSW",
    "latitude": -33.85,
    "longitude": 151.0333
  },
  {
    "place_name": "Guildford",
    "state_code": "NSW",
    "latitude": -33.8643,
    "longitude": 150.9839
  },
  {
    "place_name": "Wetherill Park Dc",
    "state_code": "NSW",
    "latitude": -33.8872,
    "longitude": 151.0086
  },
  {
    "place_name": "Fairfield",
    "state_code": "NSW",
    "latitude": -33.8667,
    "longitude": 150.95
  },
  {
    "place_name": "Liverpool",
    "state_code": "NSW",
    "latitude": -33.9,
    "longitude": 150.9333
  },
  {
    "place_name": "Moorebank",
    "state_code": "NSW",
    "latitude": -33.9425,
    "longitude": 150.9377
  },
  {
    "place_name": "Bankstown",
    "state_code": "NSW",
    "latitude": -33.9167,
    "longitude": 151.0333
  },
  {
    "place_name": "Bankstown",
    "state_code": "NSW",
    "latitude": -33.9167,
    "longitude": 151.0333
  },
  {
    "place_name": "Ingleburn",
    "state_code": "NSW",
    "latitude": -34,
    "longitude": 150.8667
  },
  {
    "place_name": "Milperra",
    "state_code": "NSW",
    "latitude": -33.9393,
    "longitude": 150.9815
  },
  {
    "place_name": "Leightonfield Mc",
    "state_code": "NSW",
    "latitude": -33.8816,
    "longitude": 150.9844
  },
  {
    "place_name": "Leightonfield Mc",
    "state_code": "NSW",
    "latitude": -33.8816,
    "longitude": 150.9844
  },
  {
    "place_name": "Sydney",
    "state_code": "NSW",
    "latitude": -33.8678,
    "longitude": 151.2073
  },
  {
    "place_name": "Dawes Point",
    "state_code": "NSW",
    "latitude": -33.8561,
    "longitude": 151.2077
  },
  {
    "place_name": "The Rocks",
    "state_code": "NSW",
    "latitude": -33.8592,
    "longitude": 151.2081
  },
  {
    "place_name": "Parliament House",
    "state_code": "NSW",
    "latitude": -33.8651,
    "longitude": 151.2053
  },
  {
    "place_name": "Sydney South",
    "state_code": "NSW",
    "latitude": -33.8699,
    "longitude": 151.2025
  },
  {
    "place_name": "Barangaroo",
    "state_code": "NSW",
    "latitude": -33.8603,
    "longitude": 151.2016
  },
  {
    "place_name": "Millers Point",
    "state_code": "NSW",
    "latitude": -33.8596,
    "longitude": 151.2041
  },
  {
    "place_name": "Haymarket",
    "state_code": "NSW",
    "latitude": -33.8787,
    "longitude": 151.2053
  },
  {
    "place_name": "Sydney",
    "state_code": "NSW",
    "latitude": -33.8678,
    "longitude": 151.2073
  },
  {
    "place_name": "World Square",
    "state_code": "NSW",
    "latitude": -33.8699,
    "longitude": 151.2025
  },
  {
    "place_name": "Alexandria Mc",
    "state_code": "NSW",
    "latitude": -33.8699,
    "longitude": 151.2025
  },
  {
    "place_name": "Eastern Suburbs Mc",
    "state_code": "NSW",
    "latitude": -33.8699,
    "longitude": 151.2025
  },
  {
    "place_name": "The University Of Sydney",
    "state_code": "NSW",
    "latitude": -33.8699,
    "longitude": 151.2025
  },
  {
    "place_name": "Broadway",
    "state_code": "NSW",
    "latitude": -33.8699,
    "longitude": 151.2025
  },
  {
    "place_name": "Ultimo",
    "state_code": "NSW",
    "latitude": -33.8772,
    "longitude": 151.1972
  },
  {
    "place_name": "Darlington",
    "state_code": "NSW",
    "latitude": -33.891,
    "longitude": 151.1955
  },
  {
    "place_name": "Chippendale",
    "state_code": "NSW",
    "latitude": -33.8867,
    "longitude": 151.1975
  },
  {
    "place_name": "Pyrmont",
    "state_code": "NSW",
    "latitude": -33.8698,
    "longitude": 151.194
  },
  {
    "place_name": "Darlinghurst",
    "state_code": "NSW",
    "latitude": -33.8794,
    "longitude": 151.2193
  },
  {
    "place_name": "Surry Hills",
    "state_code": "NSW",
    "latitude": -33.8837,
    "longitude": 151.2128
  },
  {
    "place_name": "Kings Cross",
    "state_code": "NSW",
    "latitude": -33.875,
    "longitude": 151.2223
  },
  {
    "place_name": "Potts Point",
    "state_code": "NSW",
    "latitude": -33.8713,
    "longitude": 151.222
  },
  {
    "place_name": "Rushcutters Bay",
    "state_code": "NSW",
    "latitude": -33.8748,
    "longitude": 151.228
  },
  {
    "place_name": "Elizabeth Bay",
    "state_code": "NSW",
    "latitude": -33.8718,
    "longitude": 151.2271
  },
  {
    "place_name": "Woolloomooloo",
    "state_code": "NSW",
    "latitude": -33.8704,
    "longitude": 151.2197
  },
  {
    "place_name": "Strawberry Hills",
    "state_code": "NSW",
    "latitude": -33.9032,
    "longitude": 150.9677
  },
  {
    "place_name": "Eveleigh",
    "state_code": "NSW",
    "latitude": -33.8956,
    "longitude": 151.1924
  },
  {
    "place_name": "Alexandria",
    "state_code": "NSW",
    "latitude": -33.9022,
    "longitude": 151.2004
  },
  {
    "place_name": "Beaconsfield",
    "state_code": "NSW",
    "latitude": -33.9115,
    "longitude": 151.2004
  },
  {
    "place_name": "Redfern",
    "state_code": "NSW",
    "latitude": -33.8928,
    "longitude": 151.2041
  },
  {
    "place_name": "Waterloo",
    "state_code": "NSW",
    "latitude": -33.9167,
    "longitude": 151.2
  },
  {
    "place_name": "Zetland",
    "state_code": "NSW",
    "latitude": -33.9075,
    "longitude": 151.2086
  },
  {
    "place_name": "Rosebery",
    "state_code": "NSW",
    "latitude": -33.9167,
    "longitude": 151.2
  },
  {
    "place_name": "Eastlakes",
    "state_code": "NSW",
    "latitude": -33.932,
    "longitude": 151.2121
  },
  {
    "place_name": "Botany",
    "state_code": "NSW",
    "latitude": -33.946,
    "longitude": 151.1959
  },
  {
    "place_name": "Banksmeadow",
    "state_code": "NSW",
    "latitude": -33.9566,
    "longitude": 151.2096
  },
  {
    "place_name": "Sydney International Airport",
    "state_code": "NSW",
    "latitude": -33.939,
    "longitude": 151.1862
  },
  {
    "place_name": "Mascot",
    "state_code": "NSW",
    "latitude": -33.926,
    "longitude": 151.1935
  },
  {
    "place_name": "Sydney Domestic Airport",
    "state_code": "NSW",
    "latitude": -33.939,
    "longitude": 151.1862
  },
  {
    "place_name": "Paddington",
    "state_code": "NSW",
    "latitude": -33.8842,
    "longitude": 151.2315
  },
  {
    "place_name": "Moore Park",
    "state_code": "NSW",
    "latitude": -33.9014,
    "longitude": 151.2138
  },
  {
    "place_name": "Centennial Park",
    "state_code": "NSW",
    "latitude": -33.8979,
    "longitude": 151.2336
  },
  {
    "place_name": "Queens Park",
    "state_code": "NSW",
    "latitude": -33.8995,
    "longitude": 151.2472
  },
  {
    "place_name": "Bondi Junction",
    "state_code": "NSW",
    "latitude": -33.8928,
    "longitude": 151.2472
  },
  {
    "place_name": "Bellevue Hill",
    "state_code": "NSW",
    "latitude": -33.879,
    "longitude": 151.251
  },
  {
    "place_name": "Bronte",
    "state_code": "NSW",
    "latitude": -33.902,
    "longitude": 151.2656
  },
  {
    "place_name": "Waverley",
    "state_code": "NSW",
    "latitude": -33.8977,
    "longitude": 151.2501
  },
  {
    "place_name": "Woollahra",
    "state_code": "NSW",
    "latitude": -33.8878,
    "longitude": 151.2368
  },
  {
    "place_name": "Tamarama",
    "state_code": "NSW",
    "latitude": -33.8984,
    "longitude": 151.2706
  },
  {
    "place_name": "Bondi Beach",
    "state_code": "NSW",
    "latitude": -33.891,
    "longitude": 151.2716
  },
  {
    "place_name": "Bondi",
    "state_code": "NSW",
    "latitude": -33.8943,
    "longitude": 151.2644
  },
  {
    "place_name": "North Bondi",
    "state_code": "NSW",
    "latitude": -33.8853,
    "longitude": 151.2752
  },
  {
    "place_name": "Ben Buckler",
    "state_code": "NSW",
    "latitude": -33.8904,
    "longitude": 151.2475
  },
  {
    "place_name": "Darling Point",
    "state_code": "NSW",
    "latitude": -33.8706,
    "longitude": 151.2389
  },
  {
    "place_name": "Hmas Rushcutters",
    "state_code": "NSW",
    "latitude": -33.8688,
    "longitude": 151.2444
  },
  {
    "place_name": "Point Piper",
    "state_code": "NSW",
    "latitude": -33.8667,
    "longitude": 151.25
  },
  {
    "place_name": "Edgecliff",
    "state_code": "NSW",
    "latitude": -33.8833,
    "longitude": 151.25
  },
  {
    "place_name": "Double Bay",
    "state_code": "NSW",
    "latitude": -33.8778,
    "longitude": 151.2435
  },
  {
    "place_name": "Rose Bay",
    "state_code": "NSW",
    "latitude": -33.8688,
    "longitude": 151.2706
  },
  {
    "place_name": "Vaucluse",
    "state_code": "NSW",
    "latitude": -33.8555,
    "longitude": 151.2775
  },
  {
    "place_name": "Dover Heights",
    "state_code": "NSW",
    "latitude": -33.8708,
    "longitude": 151.2792
  },
  {
    "place_name": "Watsons Bay",
    "state_code": "NSW",
    "latitude": -33.8439,
    "longitude": 151.2829
  },
  {
    "place_name": "Hmas Watson",
    "state_code": "NSW",
    "latitude": -33.8625,
    "longitude": 151.2819
  },
  {
    "place_name": "Rose Bay North",
    "state_code": "NSW",
    "latitude": -33.8572,
    "longitude": 151.2784
  },
  {
    "place_name": "Clovelly",
    "state_code": "NSW",
    "latitude": -33.9121,
    "longitude": 151.2588
  },
  {
    "place_name": "Randwick",
    "state_code": "NSW",
    "latitude": -33.9144,
    "longitude": 151.2489
  },
  {
    "place_name": "St Pauls",
    "state_code": "NSW",
    "latitude": -33.9251,
    "longitude": 151.231
  },
  {
    "place_name": "Clovelly West",
    "state_code": "NSW",
    "latitude": -33.9251,
    "longitude": 151.231
  },
  {
    "place_name": "Kingsford",
    "state_code": "NSW",
    "latitude": -33.924,
    "longitude": 151.2275
  },
  {
    "place_name": "Daceyville",
    "state_code": "NSW",
    "latitude": -33.9333,
    "longitude": 151.2333
  },
  {
    "place_name": "Kensington",
    "state_code": "NSW",
    "latitude": -33.9202,
    "longitude": 151.2224
  },
  {
    "place_name": "South Coogee",
    "state_code": "NSW",
    "latitude": -33.9205,
    "longitude": 151.2552
  },
  {
    "place_name": "Coogee",
    "state_code": "NSW",
    "latitude": -33.9205,
    "longitude": 151.2552
  },
  {
    "place_name": "Maroubra",
    "state_code": "NSW",
    "latitude": -33.95,
    "longitude": 151.2333
  },
  {
    "place_name": "Pagewood",
    "state_code": "NSW",
    "latitude": -33.9414,
    "longitude": 151.2109
  },
  {
    "place_name": "Maroubra South",
    "state_code": "NSW",
    "latitude": -33.9445,
    "longitude": 151.2265
  },
  {
    "place_name": "Phillip Bay",
    "state_code": "NSW",
    "latitude": -33.9816,
    "longitude": 151.234
  },
  {
    "place_name": "Hillsdale",
    "state_code": "NSW",
    "latitude": -33.9515,
    "longitude": 151.2278
  },
  {
    "place_name": "Port Botany",
    "state_code": "NSW",
    "latitude": -33.9745,
    "longitude": 151.2228
  },
  {
    "place_name": "Eastgardens",
    "state_code": "NSW",
    "latitude": -33.9451,
    "longitude": 151.2258
  },
  {
    "place_name": "Little Bay",
    "state_code": "NSW",
    "latitude": -33.979,
    "longitude": 151.243
  },
  {
    "place_name": "Malabar",
    "state_code": "NSW",
    "latitude": -33.9622,
    "longitude": 151.248
  },
  {
    "place_name": "Chifley",
    "state_code": "NSW",
    "latitude": -33.967,
    "longitude": 151.2422
  },
  {
    "place_name": "La Perouse",
    "state_code": "NSW",
    "latitude": -33.9872,
    "longitude": 151.2317
  },
  {
    "place_name": "Matraville",
    "state_code": "NSW",
    "latitude": -33.95,
    "longitude": 151.2333
  },
  {
    "place_name": "Glebe",
    "state_code": "NSW",
    "latitude": -33.8788,
    "longitude": 151.1843
  },
  {
    "place_name": "Forest Lodge",
    "state_code": "NSW",
    "latitude": -33.8814,
    "longitude": 151.18
  },
  {
    "place_name": "Annandale",
    "state_code": "NSW",
    "latitude": -33.8833,
    "longitude": 151.1667
  },
  {
    "place_name": "Rozelle",
    "state_code": "NSW",
    "latitude": -33.8614,
    "longitude": 151.1705
  },
  {
    "place_name": "Lilyfield",
    "state_code": "NSW",
    "latitude": -33.875,
    "longitude": 151.1653
  },
  {
    "place_name": "Leichhardt",
    "state_code": "NSW",
    "latitude": -33.8834,
    "longitude": 151.1562
  },
  {
    "place_name": "Balmain",
    "state_code": "NSW",
    "latitude": -33.8548,
    "longitude": 151.1833
  },
  {
    "place_name": "Balmain East",
    "state_code": "NSW",
    "latitude": -33.8571,
    "longitude": 151.1928
  },
  {
    "place_name": "Birchgrove",
    "state_code": "NSW",
    "latitude": -33.8516,
    "longitude": 151.1824
  },
  {
    "place_name": "Newtown",
    "state_code": "NSW",
    "latitude": -33.8983,
    "longitude": 151.1775
  },
  {
    "place_name": "Enmore",
    "state_code": "NSW",
    "latitude": -30.7333,
    "longitude": 151.8
  },
  {
    "place_name": "Erskineville",
    "state_code": "NSW",
    "latitude": -33.9025,
    "longitude": 151.1858
  },
  {
    "place_name": "St Peters",
    "state_code": "NSW",
    "latitude": -33.9167,
    "longitude": 151.1833
  },
  {
    "place_name": "Sydenham",
    "state_code": "NSW",
    "latitude": -33.9167,
    "longitude": 151.168
  },
  {
    "place_name": "Tempe",
    "state_code": "NSW",
    "latitude": -33.9233,
    "longitude": 151.1602
  },
  {
    "place_name": "Haberfield",
    "state_code": "NSW",
    "latitude": -33.8833,
    "longitude": 151.2
  },
  {
    "place_name": "Russell Lea",
    "state_code": "NSW",
    "latitude": -33.8589,
    "longitude": 151.1411
  },
  {
    "place_name": "Wareemba",
    "state_code": "NSW",
    "latitude": -33.8582,
    "longitude": 151.1309
  },
  {
    "place_name": "Five Dock",
    "state_code": "NSW",
    "latitude": -33.8674,
    "longitude": 151.1291
  },
  {
    "place_name": "Chiswick",
    "state_code": "NSW",
    "latitude": -33.85,
    "longitude": 151.1385
  },
  {
    "place_name": "Abbotsford",
    "state_code": "NSW",
    "latitude": -33.8489,
    "longitude": 151.128
  },
  {
    "place_name": "Canada Bay",
    "state_code": "NSW",
    "latitude": -33.85,
    "longitude": 151.15
  },
  {
    "place_name": "Rodd Point",
    "state_code": "NSW",
    "latitude": -33.8666,
    "longitude": 151.1399
  },
  {
    "place_name": "Drummoyne",
    "state_code": "NSW",
    "latitude": -33.8524,
    "longitude": 151.1549
  },
  {
    "place_name": "Westgate",
    "state_code": "NSW",
    "latitude": -33.8798,
    "longitude": 151.1623
  },
  {
    "place_name": "Stanmore",
    "state_code": "NSW",
    "latitude": -33.8941,
    "longitude": 151.1642
  },
  {
    "place_name": "Petersham North",
    "state_code": "NSW",
    "latitude": -33.8946,
    "longitude": 151.1549
  },
  {
    "place_name": "Petersham",
    "state_code": "NSW",
    "latitude": -33.8946,
    "longitude": 151.1549
  },
  {
    "place_name": "Lewisham",
    "state_code": "NSW",
    "latitude": -33.8972,
    "longitude": 151.1488
  },
  {
    "place_name": "Missenden Road",
    "state_code": "NSW",
    "latitude": -33.8892,
    "longitude": 151.1771
  },
  {
    "place_name": "Camperdown",
    "state_code": "NSW",
    "latitude": -33.8897,
    "longitude": 151.1764
  },
  {
    "place_name": "Unsw Sydney",
    "state_code": "NSW",
    "latitude": -33.8427,
    "longitude": 151.1936
  },
  {
    "place_name": "North Sydney",
    "state_code": "NSW",
    "latitude": -33.839,
    "longitude": 151.2072
  },
  {
    "place_name": "Chatswood",
    "state_code": "NSW",
    "latitude": -33.8,
    "longitude": 151.1833
  },
  {
    "place_name": "Northern Suburbs Mc",
    "state_code": "NSW",
    "latitude": -33.8427,
    "longitude": 151.1936
  },
  {
    "place_name": "North Sydney",
    "state_code": "NSW",
    "latitude": -33.839,
    "longitude": 151.2072
  },
  {
    "place_name": "Hmas Waterhen",
    "state_code": "NSW",
    "latitude": -33.842,
    "longitude": 151.2046
  },
  {
    "place_name": "Waverton",
    "state_code": "NSW",
    "latitude": -33.8386,
    "longitude": 151.2005
  },
  {
    "place_name": "Hmas Platypus",
    "state_code": "NSW",
    "latitude": -33.842,
    "longitude": 151.2046
  },
  {
    "place_name": "Mcmahons Point",
    "state_code": "NSW",
    "latitude": -33.8449,
    "longitude": 151.2031
  },
  {
    "place_name": "North Sydney Shoppingworld",
    "state_code": "NSW",
    "latitude": -33.822,
    "longitude": 151.1962
  },
  {
    "place_name": "North Sydney",
    "state_code": "NSW",
    "latitude": -33.839,
    "longitude": 151.2072
  },
  {
    "place_name": "Lavender Bay",
    "state_code": "NSW",
    "latitude": -33.8437,
    "longitude": 151.2075
  },
  {
    "place_name": "Milsons Point",
    "state_code": "NSW",
    "latitude": -33.846,
    "longitude": 151.2119
  },
  {
    "place_name": "Kirribilli",
    "state_code": "NSW",
    "latitude": -33.8487,
    "longitude": 151.2162
  },
  {
    "place_name": "Cammeray",
    "state_code": "NSW",
    "latitude": -33.8213,
    "longitude": 151.2161
  },
  {
    "place_name": "Northbridge",
    "state_code": "NSW",
    "latitude": -33.8094,
    "longitude": 151.2222
  },
  {
    "place_name": "Artarmon",
    "state_code": "NSW",
    "latitude": -33.8167,
    "longitude": 151.1833
  },
  {
    "place_name": "Greenwich",
    "state_code": "NSW",
    "latitude": -33.8395,
    "longitude": 151.183
  },
  {
    "place_name": "Crows Nest",
    "state_code": "NSW",
    "latitude": -33.8265,
    "longitude": 151.2019
  },
  {
    "place_name": "Gore Hill",
    "state_code": "NSW",
    "latitude": -33.8167,
    "longitude": 151.1825
  },
  {
    "place_name": "Wollstonecraft",
    "state_code": "NSW",
    "latitude": -33.8328,
    "longitude": 151.1898
  },
  {
    "place_name": "St Leonards",
    "state_code": "NSW",
    "latitude": -33.8234,
    "longitude": 151.1984
  },
  {
    "place_name": "Naremburn",
    "state_code": "NSW",
    "latitude": -33.817,
    "longitude": 151.2008
  },
  {
    "place_name": "Royal North Shore Hospital",
    "state_code": "NSW",
    "latitude": -33.822,
    "longitude": 151.1962
  },
  {
    "place_name": "Northwood",
    "state_code": "NSW",
    "latitude": -33.8289,
    "longitude": 151.1803
  },
  {
    "place_name": "Riverview",
    "state_code": "NSW",
    "latitude": -33.824,
    "longitude": 151.1602
  },
  {
    "place_name": "Longueville",
    "state_code": "NSW",
    "latitude": -33.8312,
    "longitude": 151.1662
  },
  {
    "place_name": "Lane Cove North",
    "state_code": "NSW",
    "latitude": -33.8054,
    "longitude": 151.1664
  },
  {
    "place_name": "Linley Point",
    "state_code": "NSW",
    "latitude": -33.8266,
    "longitude": 151.1502
  },
  {
    "place_name": "Lane Cove West",
    "state_code": "NSW",
    "latitude": -33.8161,
    "longitude": 151.1515
  },
  {
    "place_name": "Lane Cove",
    "state_code": "NSW",
    "latitude": -33.8157,
    "longitude": 151.1668
  },
  {
    "place_name": "Chatswood West",
    "state_code": "NSW",
    "latitude": -33.794,
    "longitude": 151.1649
  },
  {
    "place_name": "Chatswood",
    "state_code": "NSW",
    "latitude": -33.8,
    "longitude": 151.1833
  },
  {
    "place_name": "Willoughby East",
    "state_code": "NSW",
    "latitude": -33.7984,
    "longitude": 151.2052
  },
  {
    "place_name": "Middle Cove",
    "state_code": "NSW",
    "latitude": -33.7928,
    "longitude": 151.2125
  },
  {
    "place_name": "Willoughby North",
    "state_code": "NSW",
    "latitude": -33.8094,
    "longitude": 151.2222
  },
  {
    "place_name": "Castlecrag",
    "state_code": "NSW",
    "latitude": -33.7999,
    "longitude": 151.2231
  },
  {
    "place_name": "Willoughby",
    "state_code": "NSW",
    "latitude": -33.8049,
    "longitude": 151.1993
  },
  {
    "place_name": "North Willoughby",
    "state_code": "NSW",
    "latitude": -33.7956,
    "longitude": 151.2007
  },
  {
    "place_name": "Castle Cove",
    "state_code": "NSW",
    "latitude": -33.7865,
    "longitude": 151.2092
  },
  {
    "place_name": "Roseville",
    "state_code": "NSW",
    "latitude": -33.7833,
    "longitude": 151.1833
  },
  {
    "place_name": "Roseville Chase",
    "state_code": "NSW",
    "latitude": -33.7785,
    "longitude": 151.1968
  },
  {
    "place_name": "East Lindfield",
    "state_code": "NSW",
    "latitude": -33.7666,
    "longitude": 151.1868
  },
  {
    "place_name": "Lindfield West",
    "state_code": "NSW",
    "latitude": -33.7766,
    "longitude": 151.17
  },
  {
    "place_name": "Lindfield",
    "state_code": "NSW",
    "latitude": -33.7833,
    "longitude": 151.1667
  },
  {
    "place_name": "Killara",
    "state_code": "NSW",
    "latitude": -33.766,
    "longitude": 151.1621
  },
  {
    "place_name": "East Killara",
    "state_code": "NSW",
    "latitude": -33.7554,
    "longitude": 151.1815
  },
  {
    "place_name": "Gordon",
    "state_code": "NSW",
    "latitude": -33.7553,
    "longitude": 151.1512
  },
  {
    "place_name": "West Pymble",
    "state_code": "NSW",
    "latitude": -33.7667,
    "longitude": 151.1333
  },
  {
    "place_name": "Pymble",
    "state_code": "NSW",
    "latitude": -33.7439,
    "longitude": 151.1419
  },
  {
    "place_name": "South Turramurra",
    "state_code": "NSW",
    "latitude": -33.7494,
    "longitude": 151.1126
  },
  {
    "place_name": "Warrawee",
    "state_code": "NSW",
    "latitude": -33.7288,
    "longitude": 151.1205
  },
  {
    "place_name": "North Turramurra",
    "state_code": "NSW",
    "latitude": -33.7131,
    "longitude": 151.1464
  },
  {
    "place_name": "Turramurra",
    "state_code": "NSW",
    "latitude": -33.7334,
    "longitude": 151.1285
  },
  {
    "place_name": "St Ives Chase",
    "state_code": "NSW",
    "latitude": -33.7038,
    "longitude": 151.1646
  },
  {
    "place_name": "St Ives",
    "state_code": "NSW",
    "latitude": -33.7209,
    "longitude": 151.1708
  },
  {
    "place_name": "Wahroonga",
    "state_code": "NSW",
    "latitude": -33.7182,
    "longitude": 151.1156
  },
  {
    "place_name": "North Wahroonga",
    "state_code": "NSW",
    "latitude": -33.7053,
    "longitude": 151.1228
  },
  {
    "place_name": "Normanhurst",
    "state_code": "NSW",
    "latitude": -33.7333,
    "longitude": 151.1
  },
  {
    "place_name": "Waitara",
    "state_code": "NSW",
    "latitude": -33.7109,
    "longitude": 151.1033
  },
  {
    "place_name": "Hornsby",
    "state_code": "NSW",
    "latitude": -33.7024,
    "longitude": 151.0993
  },
  {
    "place_name": "Asquith",
    "state_code": "NSW",
    "latitude": -33.6833,
    "longitude": 151.1
  },
  {
    "place_name": "Hornsby Heights",
    "state_code": "NSW",
    "latitude": -33.6713,
    "longitude": 151.0943
  },
  {
    "place_name": "Mount Colah",
    "state_code": "NSW",
    "latitude": -33.6833,
    "longitude": 151.1167
  },
  {
    "place_name": "Mount Kuring-Gai",
    "state_code": "NSW",
    "latitude": -33.642,
    "longitude": 151.1287
  },
  {
    "place_name": "Berowra",
    "state_code": "NSW",
    "latitude": -33.6208,
    "longitude": 151.1509
  },
  {
    "place_name": "Cowan",
    "state_code": "NSW",
    "latitude": -33.5956,
    "longitude": 151.1686
  },
  {
    "place_name": "Berowra Creek",
    "state_code": "NSW",
    "latitude": -33.5827,
    "longitude": 151.1221
  },
  {
    "place_name": "Berowra Waters",
    "state_code": "NSW",
    "latitude": -33.6009,
    "longitude": 151.1264
  },
  {
    "place_name": "Berowra Heights",
    "state_code": "NSW",
    "latitude": -33.6121,
    "longitude": 151.1375
  },
  {
    "place_name": "Cogra Bay",
    "state_code": "NSW",
    "latitude": -33.5198,
    "longitude": 151.222
  },
  {
    "place_name": "Dangar Island",
    "state_code": "NSW",
    "latitude": -33.5386,
    "longitude": 151.2415
  },
  {
    "place_name": "Cheero Point",
    "state_code": "NSW",
    "latitude": -33.5096,
    "longitude": 151.1932
  },
  {
    "place_name": "Bar Point",
    "state_code": "NSW",
    "latitude": -33.5122,
    "longitude": 151.1622
  },
  {
    "place_name": "Brooklyn",
    "state_code": "NSW",
    "latitude": -33.549,
    "longitude": 151.2249
  },
  {
    "place_name": "Milsons Passage",
    "state_code": "NSW",
    "latitude": -33.5169,
    "longitude": 151.1774
  },
  {
    "place_name": "Mooney Mooney",
    "state_code": "NSW",
    "latitude": -33.5243,
    "longitude": 151.201
  },
  {
    "place_name": "Duffys Forest",
    "state_code": "NSW",
    "latitude": -33.6705,
    "longitude": 151.196
  },
  {
    "place_name": "Terrey Hills",
    "state_code": "NSW",
    "latitude": -33.6833,
    "longitude": 151.2333
  },
  {
    "place_name": "Cottage Point",
    "state_code": "NSW",
    "latitude": -33.6197,
    "longitude": 151.2036
  },
  {
    "place_name": "Belrose West",
    "state_code": "NSW",
    "latitude": -33.7173,
    "longitude": 151.232
  },
  {
    "place_name": "Belrose",
    "state_code": "NSW",
    "latitude": -33.7395,
    "longitude": 151.2103
  },
  {
    "place_name": "Davidson",
    "state_code": "NSW",
    "latitude": -33.743,
    "longitude": 151.2008
  },
  {
    "place_name": "Frenchs Forest East",
    "state_code": "NSW",
    "latitude": -33.7482,
    "longitude": 151.2232
  },
  {
    "place_name": "Frenchs Forest",
    "state_code": "NSW",
    "latitude": -33.7482,
    "longitude": 151.2232
  },
  {
    "place_name": "Killarney Heights",
    "state_code": "NSW",
    "latitude": -33.7745,
    "longitude": 151.2203
  },
  {
    "place_name": "Forestville",
    "state_code": "NSW",
    "latitude": -33.7667,
    "longitude": 151.2083
  },
  {
    "place_name": "Mosman",
    "state_code": "NSW",
    "latitude": -33.839,
    "longitude": 151.2396
  },
  {
    "place_name": "Spit Junction",
    "state_code": "NSW",
    "latitude": -33.8291,
    "longitude": 151.2448
  },
  {
    "place_name": "Kurraba Point",
    "state_code": "NSW",
    "latitude": -33.8424,
    "longitude": 151.2226
  },
  {
    "place_name": "Neutral Bay Junction",
    "state_code": "NSW",
    "latitude": -33.8358,
    "longitude": 151.2183
  },
  {
    "place_name": "Neutral Bay",
    "state_code": "NSW",
    "latitude": -33.8378,
    "longitude": 151.2175
  },
  {
    "place_name": "Cremorne Junction",
    "state_code": "NSW",
    "latitude": -33.83,
    "longitude": 151.2267
  },
  {
    "place_name": "Cremorne Point",
    "state_code": "NSW",
    "latitude": -33.8401,
    "longitude": 151.227
  },
  {
    "place_name": "Cremorne",
    "state_code": "NSW",
    "latitude": -33.8344,
    "longitude": 151.2268
  },
  {
    "place_name": "Hmas Penguin",
    "state_code": "NSW",
    "latitude": -33.7787,
    "longitude": 151.2745
  },
  {
    "place_name": "Seaforth",
    "state_code": "NSW",
    "latitude": -33.8014,
    "longitude": 151.2398
  },
  {
    "place_name": "Balgowlah Heights",
    "state_code": "NSW",
    "latitude": -33.8066,
    "longitude": 151.2624
  },
  {
    "place_name": "North Balgowlah",
    "state_code": "NSW",
    "latitude": -33.7863,
    "longitude": 151.248
  },
  {
    "place_name": "Balgowlah",
    "state_code": "NSW",
    "latitude": -33.7949,
    "longitude": 151.2572
  },
  {
    "place_name": "Manly Vale",
    "state_code": "NSW",
    "latitude": -33.7787,
    "longitude": 151.2745
  },
  {
    "place_name": "Clontarf",
    "state_code": "NSW",
    "latitude": -33.8055,
    "longitude": 151.2537
  },
  {
    "place_name": "Fairlight",
    "state_code": "NSW",
    "latitude": -33.7957,
    "longitude": 151.2735
  },
  {
    "place_name": "Manly",
    "state_code": "NSW",
    "latitude": -33.798,
    "longitude": 151.2883
  },
  {
    "place_name": "Manly East",
    "state_code": "NSW",
    "latitude": -33.798,
    "longitude": 151.2883
  },
  {
    "place_name": "Curl Curl",
    "state_code": "NSW",
    "latitude": -33.7689,
    "longitude": 151.2889
  },
  {
    "place_name": "Harbord",
    "state_code": "NSW",
    "latitude": -33.7787,
    "longitude": 151.2745
  },
  {
    "place_name": "Queenscliff",
    "state_code": "NSW",
    "latitude": -33.7828,
    "longitude": 151.285
  },
  {
    "place_name": "Freshwater",
    "state_code": "NSW",
    "latitude": -33.7787,
    "longitude": 151.2857
  },
  {
    "place_name": "Collaroy Beach",
    "state_code": "NSW",
    "latitude": -33.732,
    "longitude": 151.3012
  },
  {
    "place_name": "Wheeler Heights",
    "state_code": "NSW",
    "latitude": -33.7274,
    "longitude": 151.2791
  },
  {
    "place_name": "Collaroy",
    "state_code": "NSW",
    "latitude": -33.732,
    "longitude": 151.3012
  },
  {
    "place_name": "Collaroy Plateau",
    "state_code": "NSW",
    "latitude": -33.7293,
    "longitude": 151.2865
  },
  {
    "place_name": "Wingala",
    "state_code": "NSW",
    "latitude": -33.7416,
    "longitude": 151.2762
  },
  {
    "place_name": "Narraweena",
    "state_code": "NSW",
    "latitude": -33.7552,
    "longitude": 151.2766
  },
  {
    "place_name": "Cromer",
    "state_code": "NSW",
    "latitude": -33.7312,
    "longitude": 151.2679
  },
  {
    "place_name": "Dee Why",
    "state_code": "NSW",
    "latitude": -33.75,
    "longitude": 151.3
  },
  {
    "place_name": "North Curl Curl",
    "state_code": "NSW",
    "latitude": -33.7623,
    "longitude": 151.2898
  },
  {
    "place_name": "Brookvale",
    "state_code": "NSW",
    "latitude": -33.7611,
    "longitude": 151.2745
  },
  {
    "place_name": "Warringah Mall",
    "state_code": "NSW",
    "latitude": -33.7646,
    "longitude": 151.2561
  },
  {
    "place_name": "Beacon Hill",
    "state_code": "NSW",
    "latitude": -33.7528,
    "longitude": 151.2586
  },
  {
    "place_name": "Oxford Falls",
    "state_code": "NSW",
    "latitude": -33.739,
    "longitude": 151.2444
  },
  {
    "place_name": "Allambie",
    "state_code": "NSW",
    "latitude": -33.7666,
    "longitude": 151.2498
  },
  {
    "place_name": "North Manly",
    "state_code": "NSW",
    "latitude": -33.7756,
    "longitude": 151.2692
  },
  {
    "place_name": "Allambie Heights",
    "state_code": "NSW",
    "latitude": -33.7666,
    "longitude": 151.2498
  },
  {
    "place_name": "Elanora Heights",
    "state_code": "NSW",
    "latitude": -33.7016,
    "longitude": 151.2797
  },
  {
    "place_name": "Narrabeen",
    "state_code": "NSW",
    "latitude": -33.7128,
    "longitude": 151.2974
  },
  {
    "place_name": "North Narrabeen",
    "state_code": "NSW",
    "latitude": -33.7093,
    "longitude": 151.2961
  },
  {
    "place_name": "Ingleside",
    "state_code": "NSW",
    "latitude": -33.6846,
    "longitude": 151.2635
  },
  {
    "place_name": "Warriewood",
    "state_code": "NSW",
    "latitude": -33.6886,
    "longitude": 151.2953
  },
  {
    "place_name": "Warriewood Shopping Square",
    "state_code": "NSW",
    "latitude": -33.6793,
    "longitude": 151.2936
  },
  {
    "place_name": "Mona Vale",
    "state_code": "NSW",
    "latitude": -33.6776,
    "longitude": 151.3031
  },
  {
    "place_name": "Bayview",
    "state_code": "NSW",
    "latitude": -33.6598,
    "longitude": 151.2988
  },
  {
    "place_name": "Church Point",
    "state_code": "NSW",
    "latitude": -33.6451,
    "longitude": 151.2837
  },
  {
    "place_name": "Morning Bay",
    "state_code": "NSW",
    "latitude": -33.629,
    "longitude": 151.2867
  },
  {
    "place_name": "Elvina Bay",
    "state_code": "NSW",
    "latitude": -33.6397,
    "longitude": 151.2777
  },
  {
    "place_name": "Lovett Bay",
    "state_code": "NSW",
    "latitude": -33.6499,
    "longitude": 151.283
  },
  {
    "place_name": "Scotland Island",
    "state_code": "NSW",
    "latitude": -33.6407,
    "longitude": 151.2875
  },
  {
    "place_name": "Mccarrs Creek",
    "state_code": "NSW",
    "latitude": -33.6344,
    "longitude": 151.2889
  },
  {
    "place_name": "Newport",
    "state_code": "NSW",
    "latitude": -33.6552,
    "longitude": 151.3213
  },
  {
    "place_name": "Newport Beach",
    "state_code": "NSW",
    "latitude": -33.6569,
    "longitude": 151.3155
  },
  {
    "place_name": "Clareville",
    "state_code": "NSW",
    "latitude": -33.6297,
    "longitude": 151.3168
  },
  {
    "place_name": "Bilgola Beach",
    "state_code": "NSW",
    "latitude": -33.6449,
    "longitude": 151.3243
  },
  {
    "place_name": "Whale Beach",
    "state_code": "NSW",
    "latitude": -33.6112,
    "longitude": 151.3289
  },
  {
    "place_name": "Bilgola Plateau",
    "state_code": "NSW",
    "latitude": -33.6478,
    "longitude": 151.3121
  },
  {
    "place_name": "Careel Bay",
    "state_code": "NSW",
    "latitude": -33.6321,
    "longitude": 151.3243
  },
  {
    "place_name": "Avalon Beach",
    "state_code": "NSW",
    "latitude": -33.6359,
    "longitude": 151.329
  },
  {
    "place_name": "Bilgola",
    "state_code": "NSW",
    "latitude": -33.6321,
    "longitude": 151.3243
  },
  {
    "place_name": "Great Mackerel Beach",
    "state_code": "NSW",
    "latitude": -33.5961,
    "longitude": 151.297
  },
  {
    "place_name": "Palm Beach",
    "state_code": "NSW",
    "latitude": -33.5966,
    "longitude": 151.3238
  },
  {
    "place_name": "Currawong Beach",
    "state_code": "NSW",
    "latitude": -33.5968,
    "longitude": 151.2972
  },
  {
    "place_name": "Coasters Retreat",
    "state_code": "NSW",
    "latitude": -33.6061,
    "longitude": 151.298
  },
  {
    "place_name": "The Basin",
    "state_code": "NSW",
    "latitude": -33.6089,
    "longitude": 151.2646
  },
  {
    "place_name": "Macquarie University",
    "state_code": "NSW",
    "latitude": -33.7716,
    "longitude": 151.1138
  },
  {
    "place_name": "Hunters Hill",
    "state_code": "NSW",
    "latitude": -33.8343,
    "longitude": 151.1459
  },
  {
    "place_name": "Woolwich",
    "state_code": "NSW",
    "latitude": -33.8402,
    "longitude": 151.1694
  },
  {
    "place_name": "Henley",
    "state_code": "NSW",
    "latitude": -33.8434,
    "longitude": 151.1356
  },
  {
    "place_name": "Gladesville",
    "state_code": "NSW",
    "latitude": -33.8333,
    "longitude": 151.1333
  },
  {
    "place_name": "Huntleys Point",
    "state_code": "NSW",
    "latitude": -33.8405,
    "longitude": 151.1402
  },
  {
    "place_name": "Huntleys Cove",
    "state_code": "NSW",
    "latitude": -33.838,
    "longitude": 151.1379
  },
  {
    "place_name": "Tennyson Point",
    "state_code": "NSW",
    "latitude": -33.8317,
    "longitude": 151.1168
  },
  {
    "place_name": "Monash Park",
    "state_code": "NSW",
    "latitude": -33.8295,
    "longitude": 151.1275
  },
  {
    "place_name": "Boronia Park",
    "state_code": "NSW",
    "latitude": -33.8344,
    "longitude": 151.1293
  },
  {
    "place_name": "Ryde",
    "state_code": "NSW",
    "latitude": -33.8188,
    "longitude": 151.1062
  },
  {
    "place_name": "Putney",
    "state_code": "NSW",
    "latitude": -33.8261,
    "longitude": 151.1063
  },
  {
    "place_name": "Denistone East",
    "state_code": "NSW",
    "latitude": -33.796,
    "longitude": 151.0974
  },
  {
    "place_name": "Macquarie Centre",
    "state_code": "NSW",
    "latitude": -33.7912,
    "longitude": 151.1298
  },
  {
    "place_name": "East Ryde",
    "state_code": "NSW",
    "latitude": -33.8103,
    "longitude": 151.1315
  },
  {
    "place_name": "Macquarie Park",
    "state_code": "NSW",
    "latitude": -33.775,
    "longitude": 151.1125
  },
  {
    "place_name": "North Ryde",
    "state_code": "NSW",
    "latitude": -33.7968,
    "longitude": 151.1244
  },
  {
    "place_name": "Blenheim Road",
    "state_code": "NSW",
    "latitude": -33.7912,
    "longitude": 151.1298
  },
  {
    "place_name": "Meadowbank",
    "state_code": "NSW",
    "latitude": -33.8167,
    "longitude": 151.0886
  },
  {
    "place_name": "West Ryde",
    "state_code": "NSW",
    "latitude": -33.8054,
    "longitude": 151.0739
  },
  {
    "place_name": "Denistone",
    "state_code": "NSW",
    "latitude": -33.7983,
    "longitude": 151.0905
  },
  {
    "place_name": "Denistone West",
    "state_code": "NSW",
    "latitude": -33.8005,
    "longitude": 151.0762
  },
  {
    "place_name": "Melrose Park",
    "state_code": "NSW",
    "latitude": -33.8149,
    "longitude": 151.0721
  },
  {
    "place_name": "Ermington",
    "state_code": "NSW",
    "latitude": -33.8148,
    "longitude": 151.0547
  },
  {
    "place_name": "Rydalmere",
    "state_code": "NSW",
    "latitude": -33.8145,
    "longitude": 151.0375
  },
  {
    "place_name": "Dundas",
    "state_code": "NSW",
    "latitude": -33.8058,
    "longitude": 151.0339
  },
  {
    "place_name": "Dundas Valley",
    "state_code": "NSW",
    "latitude": -33.7883,
    "longitude": 151.0526
  },
  {
    "place_name": "Telopea",
    "state_code": "NSW",
    "latitude": -33.7928,
    "longitude": 151.0386
  },
  {
    "place_name": "Oatlands",
    "state_code": "NSW",
    "latitude": -33.796,
    "longitude": 151.0271
  },
  {
    "place_name": "Carlingford",
    "state_code": "NSW",
    "latitude": -33.7827,
    "longitude": 151.0489
  },
  {
    "place_name": "Carlingford Court",
    "state_code": "NSW",
    "latitude": -33.7776,
    "longitude": 151.0418
  },
  {
    "place_name": "Carlingford North",
    "state_code": "NSW",
    "latitude": -33.7722,
    "longitude": 151.0172
  },
  {
    "place_name": "Kingsdene",
    "state_code": "NSW",
    "latitude": -33.7776,
    "longitude": 151.0418
  },
  {
    "place_name": "Beecroft",
    "state_code": "NSW",
    "latitude": -33.7495,
    "longitude": 151.0648
  },
  {
    "place_name": "Cheltenham",
    "state_code": "NSW",
    "latitude": -33.7543,
    "longitude": 151.065
  },
  {
    "place_name": "Pennant Hills",
    "state_code": "NSW",
    "latitude": -33.7378,
    "longitude": 151.0722
  },
  {
    "place_name": "Thornleigh",
    "state_code": "NSW",
    "latitude": -33.7323,
    "longitude": 151.079
  },
  {
    "place_name": "Westleigh",
    "state_code": "NSW",
    "latitude": -33.7118,
    "longitude": 151.0714
  },
  {
    "place_name": "Epping",
    "state_code": "NSW",
    "latitude": -33.7727,
    "longitude": 151.0818
  },
  {
    "place_name": "North Epping",
    "state_code": "NSW",
    "latitude": -33.7594,
    "longitude": 151.0925
  },
  {
    "place_name": "Marsfield",
    "state_code": "NSW",
    "latitude": -33.7778,
    "longitude": 151.1057
  },
  {
    "place_name": "Eastwood",
    "state_code": "NSW",
    "latitude": -33.7918,
    "longitude": 151.0806
  },
  {
    "place_name": "Parramatta",
    "state_code": "NSW",
    "latitude": -33.8167,
    "longitude": 151
  },
  {
    "place_name": "Parramatta",
    "state_code": "NSW",
    "latitude": -33.8167,
    "longitude": 151
  },
  {
    "place_name": "West Pennant Hills",
    "state_code": "NSW",
    "latitude": -33.7457,
    "longitude": 151.0476
  },
  {
    "place_name": "Cherrybrook",
    "state_code": "NSW",
    "latitude": -33.722,
    "longitude": 151.0461
  },
  {
    "place_name": "Sydney Olympic Park",
    "state_code": "NSW",
    "latitude": -33.8498,
    "longitude": 151.0683
  },
  {
    "place_name": "Wentworth Point",
    "state_code": "NSW",
    "latitude": -33.8308,
    "longitude": 151.0744
  },
  {
    "place_name": "Homebush Bay",
    "state_code": "NSW",
    "latitude": -33.8626,
    "longitude": 151.0913
  },
  {
    "place_name": "Newington",
    "state_code": "NSW",
    "latitude": -33.8349,
    "longitude": 151.057
  },
  {
    "place_name": "Silverwater",
    "state_code": "NSW",
    "latitude": -33.8334,
    "longitude": 151.0473
  },
  {
    "place_name": "Sydney Markets",
    "state_code": "NSW",
    "latitude": -33.7838,
    "longitude": 151.0564
  },
  {
    "place_name": "Summer Hill",
    "state_code": "NSW",
    "latitude": -33.8915,
    "longitude": 151.1382
  },
  {
    "place_name": "Ashfield",
    "state_code": "NSW",
    "latitude": -33.8883,
    "longitude": 151.1227
  },
  {
    "place_name": "Croydon",
    "state_code": "NSW",
    "latitude": -33.8833,
    "longitude": 151.1167
  },
  {
    "place_name": "Enfield South",
    "state_code": "NSW",
    "latitude": -33.8972,
    "longitude": 151.1032
  },
  {
    "place_name": "Croydon Park",
    "state_code": "NSW",
    "latitude": -33.8972,
    "longitude": 151.1032
  },
  {
    "place_name": "Burwood North",
    "state_code": "NSW",
    "latitude": -33.8833,
    "longitude": 151.1
  },
  {
    "place_name": "Burwood",
    "state_code": "NSW",
    "latitude": -33.8833,
    "longitude": 151.1
  },
  {
    "place_name": "Strathfield",
    "state_code": "NSW",
    "latitude": -33.881,
    "longitude": 151.0799
  },
  {
    "place_name": "Strathfield South",
    "state_code": "NSW",
    "latitude": -33.8925,
    "longitude": 151.0833
  },
  {
    "place_name": "Burwood Heights",
    "state_code": "NSW",
    "latitude": -33.8905,
    "longitude": 151.1007
  },
  {
    "place_name": "Enfield",
    "state_code": "NSW",
    "latitude": -33.8657,
    "longitude": 151.1042
  },
  {
    "place_name": "Mortlake",
    "state_code": "NSW",
    "latitude": -33.8422,
    "longitude": 151.1072
  },
  {
    "place_name": "Breakfast Point",
    "state_code": "NSW",
    "latitude": -33.8429,
    "longitude": 151.1107
  },
  {
    "place_name": "Concord",
    "state_code": "NSW",
    "latitude": -33.8472,
    "longitude": 151.1038
  },
  {
    "place_name": "Cabarita",
    "state_code": "NSW",
    "latitude": -33.8472,
    "longitude": 151.1164
  },
  {
    "place_name": "North Strathfield",
    "state_code": "NSW",
    "latitude": -33.8569,
    "longitude": 151.0912
  },
  {
    "place_name": "Concord West",
    "state_code": "NSW",
    "latitude": -33.8481,
    "longitude": 151.0861
  },
  {
    "place_name": "Rhodes",
    "state_code": "NSW",
    "latitude": -33.8266,
    "longitude": 151.0881
  },
  {
    "place_name": "Liberty Grove",
    "state_code": "NSW",
    "latitude": -33.8409,
    "longitude": 151.084
  },
  {
    "place_name": "Concord Repatriation Hospital",
    "state_code": "NSW",
    "latitude": -33.8657,
    "longitude": 151.1042
  },
  {
    "place_name": "Homebush",
    "state_code": "NSW",
    "latitude": -33.8667,
    "longitude": 151.0833
  },
  {
    "place_name": "Homebush South",
    "state_code": "NSW",
    "latitude": -33.8667,
    "longitude": 151.0833
  },
  {
    "place_name": "Homebush West",
    "state_code": "NSW",
    "latitude": -33.8626,
    "longitude": 151.0913
  },
  {
    "place_name": "Rookwood",
    "state_code": "NSW",
    "latitude": -33.8742,
    "longitude": 151.0557
  },
  {
    "place_name": "Lidcombe North",
    "state_code": "NSW",
    "latitude": -33.8693,
    "longitude": 151.0477
  },
  {
    "place_name": "Berala",
    "state_code": "NSW",
    "latitude": -33.872,
    "longitude": 151.0339
  },
  {
    "place_name": "Lidcombe",
    "state_code": "NSW",
    "latitude": -33.8644,
    "longitude": 151.0397
  },
  {
    "place_name": "Camellia",
    "state_code": "NSW",
    "latitude": -33.8197,
    "longitude": 151.0264
  },
  {
    "place_name": "Blaxcell",
    "state_code": "NSW",
    "latitude": -33.8332,
    "longitude": 151.0198
  },
  {
    "place_name": "Granville",
    "state_code": "NSW",
    "latitude": -33.8333,
    "longitude": 151.0167
  },
  {
    "place_name": "South Granville",
    "state_code": "NSW",
    "latitude": -33.8333,
    "longitude": 151.0167
  },
  {
    "place_name": "Rosehill",
    "state_code": "NSW",
    "latitude": -33.8201,
    "longitude": 151.0245
  },
  {
    "place_name": "Clyde",
    "state_code": "NSW",
    "latitude": -33.8333,
    "longitude": 151.0167
  },
  {
    "place_name": "Holroyd",
    "state_code": "NSW",
    "latitude": -33.8333,
    "longitude": 150.95
  },
  {
    "place_name": "Birrong",
    "state_code": "NSW",
    "latitude": -33.8925,
    "longitude": 151.0207
  },
  {
    "place_name": "Potts Hill",
    "state_code": "NSW",
    "latitude": -33.8931,
    "longitude": 151.0337
  },
  {
    "place_name": "Regents Park",
    "state_code": "NSW",
    "latitude": -33.8833,
    "longitude": 151.0167
  },
  {
    "place_name": "Auburn",
    "state_code": "NSW",
    "latitude": -33.85,
    "longitude": 151.0333
  },
  {
    "place_name": "Wentworthville",
    "state_code": "NSW",
    "latitude": -33.8167,
    "longitude": 150.9667
  },
  {
    "place_name": "Girraween",
    "state_code": "NSW",
    "latitude": -33.799,
    "longitude": 150.943
  },
  {
    "place_name": "Pemulwuy",
    "state_code": "NSW",
    "latitude": -33.8227,
    "longitude": 150.9239
  },
  {
    "place_name": "Westmead",
    "state_code": "NSW",
    "latitude": -33.8038,
    "longitude": 150.9877
  },
  {
    "place_name": "Greystanes",
    "state_code": "NSW",
    "latitude": -33.8235,
    "longitude": 150.9461
  },
  {
    "place_name": "Mays Hill",
    "state_code": "NSW",
    "latitude": -33.8203,
    "longitude": 150.9943
  },
  {
    "place_name": "South Wentworthville",
    "state_code": "NSW",
    "latitude": -33.8185,
    "longitude": 150.9634
  },
  {
    "place_name": "Pendle Hill",
    "state_code": "NSW",
    "latitude": -33.8,
    "longitude": 150.95
  },
  {
    "place_name": "Constitution Hill",
    "state_code": "NSW",
    "latitude": -33.7926,
    "longitude": 150.9763
  },
  {
    "place_name": "Toongabbie East",
    "state_code": "NSW",
    "latitude": -33.7898,
    "longitude": 150.9562
  },
  {
    "place_name": "Toongabbie",
    "state_code": "NSW",
    "latitude": -33.7833,
    "longitude": 150.95
  },
  {
    "place_name": "Old Toongabbie",
    "state_code": "NSW",
    "latitude": -33.7876,
    "longitude": 150.969
  },
  {
    "place_name": "Lalor Park",
    "state_code": "NSW",
    "latitude": -33.7609,
    "longitude": 150.9312
  },
  {
    "place_name": "Seven Hills West",
    "state_code": "NSW",
    "latitude": -33.7684,
    "longitude": 150.9365
  },
  {
    "place_name": "Seven Hills",
    "state_code": "NSW",
    "latitude": -33.7833,
    "longitude": 150.9333
  },
  {
    "place_name": "Kings Langley",
    "state_code": "NSW",
    "latitude": -33.7501,
    "longitude": 150.9354
  },
  {
    "place_name": "Prospect",
    "state_code": "NSW",
    "latitude": -33.8015,
    "longitude": 150.9136
  },
  {
    "place_name": "Kings Park",
    "state_code": "NSW",
    "latitude": -33.7432,
    "longitude": 150.9076
  },
  {
    "place_name": "Marayong",
    "state_code": "NSW",
    "latitude": -33.7482,
    "longitude": 150.8927
  },
  {
    "place_name": "Huntingwood",
    "state_code": "NSW",
    "latitude": -33.7975,
    "longitude": 150.8799
  },
  {
    "place_name": "Blacktown",
    "state_code": "NSW",
    "latitude": -33.7667,
    "longitude": 150.9167
  },
  {
    "place_name": "Blacktown Westpoint",
    "state_code": "NSW",
    "latitude": -33.7896,
    "longitude": 150.9
  },
  {
    "place_name": "Arndell Park",
    "state_code": "NSW",
    "latitude": -33.7893,
    "longitude": 150.8816
  },
  {
    "place_name": "Parramatta",
    "state_code": "NSW",
    "latitude": -33.8197,
    "longitude": 151.0067
  },
  {
    "place_name": "Harris Park",
    "state_code": "NSW",
    "latitude": -33.8229,
    "longitude": 151.0078
  },
  {
    "place_name": "Parramatta Westfield",
    "state_code": "NSW",
    "latitude": -33.8197,
    "longitude": 151.0067
  },
  {
    "place_name": "North Parramatta",
    "state_code": "NSW",
    "latitude": -33.7935,
    "longitude": 151.0012
  },
  {
    "place_name": "North Rocks",
    "state_code": "NSW",
    "latitude": -33.7722,
    "longitude": 151.0172
  },
  {
    "place_name": "Northmead",
    "state_code": "NSW",
    "latitude": -33.7833,
    "longitude": 150.9833
  },
  {
    "place_name": "Winston Hills",
    "state_code": "NSW",
    "latitude": -33.7764,
    "longitude": 150.9805
  },
  {
    "place_name": "Bella Vista",
    "state_code": "NSW",
    "latitude": -33.7413,
    "longitude": 150.9546
  },
  {
    "place_name": "Baulkham Hills",
    "state_code": "NSW",
    "latitude": -33.7588,
    "longitude": 150.9929
  },
  {
    "place_name": "Castle Hill",
    "state_code": "NSW",
    "latitude": -33.7333,
    "longitude": 151
  },
  {
    "place_name": "Rouse Hill",
    "state_code": "NSW",
    "latitude": -33.6821,
    "longitude": 150.9154
  },
  {
    "place_name": "Beaumont Hills",
    "state_code": "NSW",
    "latitude": -33.6999,
    "longitude": 150.9411
  },
  {
    "place_name": "Kellyville Ridge",
    "state_code": "NSW",
    "latitude": -33.7013,
    "longitude": 150.9231
  },
  {
    "place_name": "Kellyville",
    "state_code": "NSW",
    "latitude": -33.6994,
    "longitude": 150.9536
  },
  {
    "place_name": "Annangrove",
    "state_code": "NSW",
    "latitude": -33.6576,
    "longitude": 150.9476
  },
  {
    "place_name": "Glenhaven",
    "state_code": "NSW",
    "latitude": -33.7,
    "longitude": 151
  },
  {
    "place_name": "Kenthurst",
    "state_code": "NSW",
    "latitude": -33.6553,
    "longitude": 151.005
  },
  {
    "place_name": "Glenorie",
    "state_code": "NSW",
    "latitude": -33.6018,
    "longitude": 151.0089
  },
  {
    "place_name": "Forest Glen",
    "state_code": "NSW",
    "latitude": -33.5502,
    "longitude": 151.0138
  },
  {
    "place_name": "Canoelands",
    "state_code": "NSW",
    "latitude": -33.5,
    "longitude": 151.0667
  },
  {
    "place_name": "Round Corner",
    "state_code": "NSW",
    "latitude": -33.6771,
    "longitude": 151.0339
  },
  {
    "place_name": "Dural",
    "state_code": "NSW",
    "latitude": -33.6833,
    "longitude": 151.0167
  },
  {
    "place_name": "Middle Dural",
    "state_code": "NSW",
    "latitude": -33.646,
    "longitude": 151.0205
  },
  {
    "place_name": "Galston",
    "state_code": "NSW",
    "latitude": -33.653,
    "longitude": 151.0471
  },
  {
    "place_name": "Arcadia",
    "state_code": "NSW",
    "latitude": -33.6167,
    "longitude": 151.0333
  },
  {
    "place_name": "Berrilee",
    "state_code": "NSW",
    "latitude": -33.6155,
    "longitude": 151.0914
  },
  {
    "place_name": "Fiddletown",
    "state_code": "NSW",
    "latitude": -33.6,
    "longitude": 151.05
  },
  {
    "place_name": "Merrylands",
    "state_code": "NSW",
    "latitude": -33.8333,
    "longitude": 150.9833
  },
  {
    "place_name": "Merrylands West",
    "state_code": "NSW",
    "latitude": -33.8327,
    "longitude": 150.9691
  },
  {
    "place_name": "Guildford",
    "state_code": "NSW",
    "latitude": -33.8643,
    "longitude": 150.9839
  },
  {
    "place_name": "Old Guildford",
    "state_code": "NSW",
    "latitude": -33.8643,
    "longitude": 150.9839
  },
  {
    "place_name": "Yennora",
    "state_code": "NSW",
    "latitude": -33.8617,
    "longitude": 150.9686
  },
  {
    "place_name": "Guildford West",
    "state_code": "NSW",
    "latitude": -33.8524,
    "longitude": 150.974
  },
  {
    "place_name": "Chester Hill",
    "state_code": "NSW",
    "latitude": -33.879,
    "longitude": 150.9995
  },
  {
    "place_name": "Sefton",
    "state_code": "NSW",
    "latitude": -33.8877,
    "longitude": 151.0105
  },
  {
    "place_name": "Lansdowne",
    "state_code": "NSW",
    "latitude": -33.896,
    "longitude": 150.9756
  },
  {
    "place_name": "Carramar",
    "state_code": "NSW",
    "latitude": -33.8838,
    "longitude": 150.9615
  },
  {
    "place_name": "Villawood",
    "state_code": "NSW",
    "latitude": -33.8833,
    "longitude": 150.9667
  },
  {
    "place_name": "Smithfield West",
    "state_code": "NSW",
    "latitude": -33.8667,
    "longitude": 150.917
  },
  {
    "place_name": "Smithfield",
    "state_code": "NSW",
    "latitude": -33.85,
    "longitude": 150.9333
  },
  {
    "place_name": "Woodpark",
    "state_code": "NSW",
    "latitude": -33.8414,
    "longitude": 150.9605
  },
  {
    "place_name": "Wetherill Park",
    "state_code": "NSW",
    "latitude": -33.8428,
    "longitude": 150.9006
  },
  {
    "place_name": "Fairfield West",
    "state_code": "NSW",
    "latitude": -33.8667,
    "longitude": 150.917
  },
  {
    "place_name": "Fairfield East",
    "state_code": "NSW",
    "latitude": -33.8694,
    "longitude": 150.9713
  },
  {
    "place_name": "Fairfield",
    "state_code": "NSW",
    "latitude": -33.8667,
    "longitude": 150.95
  },
  {
    "place_name": "Fairfield Heights",
    "state_code": "NSW",
    "latitude": -33.8644,
    "longitude": 150.9388
  },
  {
    "place_name": "Canley Vale",
    "state_code": "NSW",
    "latitude": -33.8866,
    "longitude": 150.948
  },
  {
    "place_name": "Cabramatta",
    "state_code": "NSW",
    "latitude": -33.8974,
    "longitude": 150.9345
  },
  {
    "place_name": "Cabramatta West",
    "state_code": "NSW",
    "latitude": -33.8967,
    "longitude": 150.9106
  },
  {
    "place_name": "Lansvale",
    "state_code": "NSW",
    "latitude": -33.9014,
    "longitude": 150.9637
  },
  {
    "place_name": "Canley Heights",
    "state_code": "NSW",
    "latitude": -33.8826,
    "longitude": 150.9241
  },
  {
    "place_name": "Glenfield",
    "state_code": "NSW",
    "latitude": -33.9667,
    "longitude": 150.9
  },
  {
    "place_name": "Green Valley",
    "state_code": "NSW",
    "latitude": -33.9029,
    "longitude": 150.8671
  },
  {
    "place_name": "Ashcroft",
    "state_code": "NSW",
    "latitude": -33.916,
    "longitude": 150.8999
  },
  {
    "place_name": "Heckenberg",
    "state_code": "NSW",
    "latitude": -33.9083,
    "longitude": 150.8898
  },
  {
    "place_name": "Busby",
    "state_code": "NSW",
    "latitude": -33.9112,
    "longitude": 150.8807
  },
  {
    "place_name": "Cartwright",
    "state_code": "NSW",
    "latitude": -33.925,
    "longitude": 150.8895
  },
  {
    "place_name": "Miller",
    "state_code": "NSW",
    "latitude": -33.9209,
    "longitude": 150.8847
  },
  {
    "place_name": "Hinchinbrook",
    "state_code": "NSW",
    "latitude": -33.9188,
    "longitude": 150.8631
  },
  {
    "place_name": "Sadleir",
    "state_code": "NSW",
    "latitude": -33.9171,
    "longitude": 150.8909
  },
  {
    "place_name": "Casula",
    "state_code": "NSW",
    "latitude": -33.9522,
    "longitude": 150.8995
  },
  {
    "place_name": "Lurnea",
    "state_code": "NSW",
    "latitude": -33.9354,
    "longitude": 150.8967
  },
  {
    "place_name": "Hammondville",
    "state_code": "NSW",
    "latitude": -33.9483,
    "longitude": 150.9521
  },
  {
    "place_name": "Liverpool South",
    "state_code": "NSW",
    "latitude": -33.9,
    "longitude": 150.9333
  },
  {
    "place_name": "Chipping Norton",
    "state_code": "NSW",
    "latitude": -33.9,
    "longitude": 150.95
  },
  {
    "place_name": "Casula Mall",
    "state_code": "NSW",
    "latitude": -33.934,
    "longitude": 150.9122
  },
  {
    "place_name": "Mount Pritchard",
    "state_code": "NSW",
    "latitude": -33.903,
    "longitude": 150.9046
  },
  {
    "place_name": "Liverpool",
    "state_code": "NSW",
    "latitude": -33.9,
    "longitude": 150.9333
  },
  {
    "place_name": "Moorebank",
    "state_code": "NSW",
    "latitude": -33.9425,
    "longitude": 150.9377
  },
  {
    "place_name": "Liverpool Westfield",
    "state_code": "NSW",
    "latitude": -33.9239,
    "longitude": 150.9224
  },
  {
    "place_name": "Prestons",
    "state_code": "NSW",
    "latitude": -33.9419,
    "longitude": 150.8717
  },
  {
    "place_name": "Warwick Farm",
    "state_code": "NSW",
    "latitude": -33.9129,
    "longitude": 150.937
  },
  {
    "place_name": "Hoxton Park",
    "state_code": "NSW",
    "latitude": -33.9313,
    "longitude": 150.8541
  },
  {
    "place_name": "Carnes Hill",
    "state_code": "NSW",
    "latitude": -33.9385,
    "longitude": 150.8488
  },
  {
    "place_name": "Cecil Hills",
    "state_code": "NSW",
    "latitude": -33.8892,
    "longitude": 150.8514
  },
  {
    "place_name": "West Hoxton",
    "state_code": "NSW",
    "latitude": -33.9167,
    "longitude": 150.85
  },
  {
    "place_name": "Len Waters Estate",
    "state_code": "NSW",
    "latitude": -33.9201,
    "longitude": 150.8502
  },
  {
    "place_name": "Horningsea Park",
    "state_code": "NSW",
    "latitude": -33.9434,
    "longitude": 150.8453
  },
  {
    "place_name": "Elizabeth Hills",
    "state_code": "NSW",
    "latitude": -33.9201,
    "longitude": 150.8502
  },
  {
    "place_name": "Middleton Grange",
    "state_code": "NSW",
    "latitude": -33.917,
    "longitude": 150.8419
  },
  {
    "place_name": "Sandy Point",
    "state_code": "NSW",
    "latitude": -35.0628,
    "longitude": 149.8635
  },
  {
    "place_name": "Voyager Point",
    "state_code": "NSW",
    "latitude": -33.9587,
    "longitude": 150.9742
  },
  {
    "place_name": "Pleasure Point",
    "state_code": "NSW",
    "latitude": -33.9699,
    "longitude": 150.9839
  },
  {
    "place_name": "Holsworthy",
    "state_code": "NSW",
    "latitude": -33.9833,
    "longitude": 150.9667
  },
  {
    "place_name": "Wattle Grove",
    "state_code": "NSW",
    "latitude": -33.9544,
    "longitude": 150.9445
  },
  {
    "place_name": "Edmondson Park",
    "state_code": "NSW",
    "latitude": -33.9569,
    "longitude": 150.8613
  },
  {
    "place_name": "Horsley Park",
    "state_code": "NSW",
    "latitude": -33.8432,
    "longitude": 150.8489
  },
  {
    "place_name": "Bossley Park",
    "state_code": "NSW",
    "latitude": -33.8618,
    "longitude": 150.8841
  },
  {
    "place_name": "Abbotsbury",
    "state_code": "NSW",
    "latitude": -33.8701,
    "longitude": 150.8612
  },
  {
    "place_name": "St Johns Park",
    "state_code": "NSW",
    "latitude": -33.883,
    "longitude": 150.9018
  },
  {
    "place_name": "Greenfield Park",
    "state_code": "NSW",
    "latitude": -33.8746,
    "longitude": 150.8919
  },
  {
    "place_name": "Prairiewood",
    "state_code": "NSW",
    "latitude": -33.8632,
    "longitude": 150.9052
  },
  {
    "place_name": "Wakeley",
    "state_code": "NSW",
    "latitude": -33.8743,
    "longitude": 150.9098
  },
  {
    "place_name": "Edensor Park",
    "state_code": "NSW",
    "latitude": -33.8797,
    "longitude": 150.8778
  },
  {
    "place_name": "Bonnyrigg Heights",
    "state_code": "NSW",
    "latitude": -33.8912,
    "longitude": 150.8699
  },
  {
    "place_name": "Bonnyrigg",
    "state_code": "NSW",
    "latitude": -33.8936,
    "longitude": 150.8891
  },
  {
    "place_name": "Kemps Creek",
    "state_code": "NSW",
    "latitude": -33.8806,
    "longitude": 150.7876
  },
  {
    "place_name": "Mount Vernon",
    "state_code": "NSW",
    "latitude": -33.8604,
    "longitude": 150.8101
  },
  {
    "place_name": "Cecil Park",
    "state_code": "NSW",
    "latitude": -33.8743,
    "longitude": 150.8418
  },
  {
    "place_name": "Austral",
    "state_code": "NSW",
    "latitude": -33.9274,
    "longitude": 150.8081
  },
  {
    "place_name": "Leppington",
    "state_code": "NSW",
    "latitude": -33.9698,
    "longitude": 150.7967
  },
  {
    "place_name": "Mount Lewis",
    "state_code": "NSW",
    "latitude": -33.9175,
    "longitude": 151.0483
  },
  {
    "place_name": "Greenacre",
    "state_code": "NSW",
    "latitude": -33.9003,
    "longitude": 151.0556
  },
  {
    "place_name": "Chullora",
    "state_code": "NSW",
    "latitude": -33.9,
    "longitude": 151.05
  },
  {
    "place_name": "Belfield",
    "state_code": "NSW",
    "latitude": -33.9035,
    "longitude": 151.0847
  },
  {
    "place_name": "Belmore",
    "state_code": "NSW",
    "latitude": -33.919,
    "longitude": 151.0894
  },
  {
    "place_name": "Hurlstone Park",
    "state_code": "NSW",
    "latitude": -33.9099,
    "longitude": 151.1287
  },
  {
    "place_name": "Canterbury",
    "state_code": "NSW",
    "latitude": -33.9119,
    "longitude": 151.1186
  },
  {
    "place_name": "Ashbury",
    "state_code": "NSW",
    "latitude": -33.8978,
    "longitude": 151.1196
  },
  {
    "place_name": "Campsie",
    "state_code": "NSW",
    "latitude": -33.9125,
    "longitude": 151.1028
  },
  {
    "place_name": "Wiley Park",
    "state_code": "NSW",
    "latitude": -33.9242,
    "longitude": 151.0674
  },
  {
    "place_name": "Lakemba",
    "state_code": "NSW",
    "latitude": -33.9197,
    "longitude": 151.0759
  },
  {
    "place_name": "Roselands",
    "state_code": "NSW",
    "latitude": -33.9332,
    "longitude": 151.0732
  },
  {
    "place_name": "Punchbowl",
    "state_code": "NSW",
    "latitude": -33.9289,
    "longitude": 151.0511
  },
  {
    "place_name": "Bass Hill",
    "state_code": "NSW",
    "latitude": -33.8986,
    "longitude": 150.9954
  },
  {
    "place_name": "Georges Hall",
    "state_code": "NSW",
    "latitude": -33.9088,
    "longitude": 150.9885
  },
  {
    "place_name": "Yagoona",
    "state_code": "NSW",
    "latitude": -33.9049,
    "longitude": 151.02
  },
  {
    "place_name": "Yagoona West",
    "state_code": "NSW",
    "latitude": -33.9021,
    "longitude": 151.0223
  },
  {
    "place_name": "Condell Park",
    "state_code": "NSW",
    "latitude": -33.9246,
    "longitude": 151.0109
  },
  {
    "place_name": "Mount Lewis",
    "state_code": "NSW",
    "latitude": -33.9175,
    "longitude": 151.0483
  },
  {
    "place_name": "Bankstown Square",
    "state_code": "NSW",
    "latitude": -33.9224,
    "longitude": 151.0231
  },
  {
    "place_name": "Bankstown Aerodrome",
    "state_code": "NSW",
    "latitude": -33.9206,
    "longitude": 151.0221
  },
  {
    "place_name": "Bankstown North",
    "state_code": "NSW",
    "latitude": -33.9224,
    "longitude": 151.0231
  },
  {
    "place_name": "Manahan",
    "state_code": "NSW",
    "latitude": -33.9224,
    "longitude": 151.0231
  },
  {
    "place_name": "Bankstown",
    "state_code": "NSW",
    "latitude": -33.9167,
    "longitude": 151.0333
  },
  {
    "place_name": "Dulwich Hill",
    "state_code": "NSW",
    "latitude": -33.9041,
    "longitude": 151.1394
  },
  {
    "place_name": "Marrickville Metro",
    "state_code": "NSW",
    "latitude": -33.9112,
    "longitude": 151.1557
  },
  {
    "place_name": "Marrickville",
    "state_code": "NSW",
    "latitude": -33.9032,
    "longitude": 151.1518
  },
  {
    "place_name": "Marrickville South",
    "state_code": "NSW",
    "latitude": -33.9032,
    "longitude": 151.1518
  },
  {
    "place_name": "Turrella",
    "state_code": "NSW",
    "latitude": -33.9303,
    "longitude": 151.1421
  },
  {
    "place_name": "Wolli Creek",
    "state_code": "NSW",
    "latitude": -33.9313,
    "longitude": 151.1522
  },
  {
    "place_name": "Arncliffe",
    "state_code": "NSW",
    "latitude": -33.9363,
    "longitude": 151.1482
  },
  {
    "place_name": "Earlwood",
    "state_code": "NSW",
    "latitude": -33.95,
    "longitude": 151.1
  },
  {
    "place_name": "Undercliffe",
    "state_code": "NSW",
    "latitude": -33.9331,
    "longitude": 151.1111
  },
  {
    "place_name": "Clemton Park",
    "state_code": "NSW",
    "latitude": -33.9348,
    "longitude": 151.0905
  },
  {
    "place_name": "Bexley South",
    "state_code": "NSW",
    "latitude": -33.95,
    "longitude": 151.1167
  },
  {
    "place_name": "Bexley North",
    "state_code": "NSW",
    "latitude": -33.9385,
    "longitude": 151.1139
  },
  {
    "place_name": "Bexley",
    "state_code": "NSW",
    "latitude": -33.95,
    "longitude": 151.1167
  },
  {
    "place_name": "Bardwell Park",
    "state_code": "NSW",
    "latitude": -33.9353,
    "longitude": 151.1257
  },
  {
    "place_name": "Bardwell Valley",
    "state_code": "NSW",
    "latitude": -33.9334,
    "longitude": 151.1367
  },
  {
    "place_name": "Kingsway West",
    "state_code": "NSW",
    "latitude": -33.9331,
    "longitude": 151.1111
  },
  {
    "place_name": "Kingsgrove",
    "state_code": "NSW",
    "latitude": -33.9393,
    "longitude": 151.0993
  },
  {
    "place_name": "Beverly Hills",
    "state_code": "NSW",
    "latitude": -33.948,
    "longitude": 151.0798
  },
  {
    "place_name": "Narwee",
    "state_code": "NSW",
    "latitude": -33.9465,
    "longitude": 151.0692
  },
  {
    "place_name": "Peakhurst",
    "state_code": "NSW",
    "latitude": -33.9629,
    "longitude": 151.0516
  },
  {
    "place_name": "Peakhurst Heights",
    "state_code": "NSW",
    "latitude": -33.9774,
    "longitude": 151.0556
  },
  {
    "place_name": "Lugarno",
    "state_code": "NSW",
    "latitude": -33.9827,
    "longitude": 151.0418
  },
  {
    "place_name": "Riverwood",
    "state_code": "NSW",
    "latitude": -33.9473,
    "longitude": 151.0497
  },
  {
    "place_name": "Padstow Heights",
    "state_code": "NSW",
    "latitude": -33.9674,
    "longitude": 151.0399
  },
  {
    "place_name": "Padstow",
    "state_code": "NSW",
    "latitude": -33.9569,
    "longitude": 151.0319
  },
  {
    "place_name": "Revesby Heights",
    "state_code": "NSW",
    "latitude": -33.9671,
    "longitude": 151.0184
  },
  {
    "place_name": "Revesby",
    "state_code": "NSW",
    "latitude": -33.95,
    "longitude": 151.0167
  },
  {
    "place_name": "Revesby North",
    "state_code": "NSW",
    "latitude": -33.9498,
    "longitude": 151.0148
  },
  {
    "place_name": "Panania",
    "state_code": "NSW",
    "latitude": -33.9537,
    "longitude": 150.9973
  },
  {
    "place_name": "East Hills",
    "state_code": "NSW",
    "latitude": -33.9667,
    "longitude": 150.9833
  },
  {
    "place_name": "Picnic Point",
    "state_code": "NSW",
    "latitude": -33.9806,
    "longitude": 150.9966
  },
  {
    "place_name": "Milperra",
    "state_code": "NSW",
    "latitude": -33.9393,
    "longitude": 150.9815
  },
  {
    "place_name": "Rockdale",
    "state_code": "NSW",
    "latitude": -33.95,
    "longitude": 151.1333
  },
  {
    "place_name": "Kyeemagh",
    "state_code": "NSW",
    "latitude": -33.9513,
    "longitude": 151.162
  },
  {
    "place_name": "Brighton-Le-Sands",
    "state_code": "NSW",
    "latitude": -33.9601,
    "longitude": 151.1511
  },
  {
    "place_name": "Banksia",
    "state_code": "NSW",
    "latitude": -33.946,
    "longitude": 151.143
  },
  {
    "place_name": "Beverley Park",
    "state_code": "NSW",
    "latitude": -33.9736,
    "longitude": 151.1373
  },
  {
    "place_name": "Ramsgate Beach",
    "state_code": "NSW",
    "latitude": -33.9852,
    "longitude": 151.1463
  },
  {
    "place_name": "Kogarah",
    "state_code": "NSW",
    "latitude": -33.9833,
    "longitude": 151.1167
  },
  {
    "place_name": "Kogarah Bay",
    "state_code": "NSW",
    "latitude": -33.9795,
    "longitude": 151.1212
  },
  {
    "place_name": "Monterey",
    "state_code": "NSW",
    "latitude": -33.9725,
    "longitude": 151.1481
  },
  {
    "place_name": "Ramsgate",
    "state_code": "NSW",
    "latitude": -33.9822,
    "longitude": 151.14
  },
  {
    "place_name": "Allawah",
    "state_code": "NSW",
    "latitude": -33.9726,
    "longitude": 151.1144
  },
  {
    "place_name": "Carlton",
    "state_code": "NSW",
    "latitude": -33.9711,
    "longitude": 151.1214
  },
  {
    "place_name": "Dolls Point",
    "state_code": "NSW",
    "latitude": -33.995,
    "longitude": 151.1455
  },
  {
    "place_name": "Sans Souci",
    "state_code": "NSW",
    "latitude": -33.9979,
    "longitude": 151.1293
  },
  {
    "place_name": "Sandringham",
    "state_code": "NSW",
    "latitude": -33.9956,
    "longitude": 151.14
  },
  {
    "place_name": "Hurstville Grove",
    "state_code": "NSW",
    "latitude": -33.9799,
    "longitude": 151.0903
  },
  {
    "place_name": "Hurstville Westfield",
    "state_code": "NSW",
    "latitude": -33.9642,
    "longitude": 151.0991
  },
  {
    "place_name": "Hurstville",
    "state_code": "NSW",
    "latitude": -33.9799,
    "longitude": 151.0903
  },
  {
    "place_name": "Blakehurst",
    "state_code": "NSW",
    "latitude": -33.9915,
    "longitude": 151.1088
  },
  {
    "place_name": "Kyle Bay",
    "state_code": "NSW",
    "latitude": -33.9879,
    "longitude": 151.0994
  },
  {
    "place_name": "Carss Park",
    "state_code": "NSW",
    "latitude": -33.9867,
    "longitude": 151.1173
  },
  {
    "place_name": "South Hurstville",
    "state_code": "NSW",
    "latitude": -33.9776,
    "longitude": 151.1055
  },
  {
    "place_name": "Connells Point",
    "state_code": "NSW",
    "latitude": -33.9883,
    "longitude": 151.0909
  },
  {
    "place_name": "Penshurst",
    "state_code": "NSW",
    "latitude": -33.9667,
    "longitude": 151.0833
  },
  {
    "place_name": "Mortdale",
    "state_code": "NSW",
    "latitude": -33.9667,
    "longitude": 151.0833
  },
  {
    "place_name": "Oatley",
    "state_code": "NSW",
    "latitude": -33.98,
    "longitude": 151.072
  },
  {
    "place_name": "Kangaroo Point",
    "state_code": "NSW",
    "latitude": -34.0026,
    "longitude": 151.0959
  },
  {
    "place_name": "Sylvania",
    "state_code": "NSW",
    "latitude": -34.0124,
    "longitude": 151.0972
  },
  {
    "place_name": "Sylvania Southgate",
    "state_code": "NSW",
    "latitude": -34.01,
    "longitude": 151.0947
  },
  {
    "place_name": "Sylvania Waters",
    "state_code": "NSW",
    "latitude": -34.0184,
    "longitude": 151.1056
  },
  {
    "place_name": "Oyster Bay",
    "state_code": "NSW",
    "latitude": -34.0041,
    "longitude": 151.0759
  },
  {
    "place_name": "Jannali",
    "state_code": "NSW",
    "latitude": -34.0164,
    "longitude": 151.0607
  },
  {
    "place_name": "Como",
    "state_code": "NSW",
    "latitude": -33.9994,
    "longitude": 151.0639
  },
  {
    "place_name": "Bonnet Bay",
    "state_code": "NSW",
    "latitude": -34.0083,
    "longitude": 151.0519
  },
  {
    "place_name": "Gymea Bay",
    "state_code": "NSW",
    "latitude": -34.0521,
    "longitude": 151.088
  },
  {
    "place_name": "Gymea",
    "state_code": "NSW",
    "latitude": -34.0364,
    "longitude": 151.0853
  },
  {
    "place_name": "Miranda",
    "state_code": "NSW",
    "latitude": -34.0386,
    "longitude": 151.1001
  },
  {
    "place_name": "Yowie Bay",
    "state_code": "NSW",
    "latitude": -34.0512,
    "longitude": 151.1023
  },
  {
    "place_name": "Taren Point",
    "state_code": "NSW",
    "latitude": -34.0194,
    "longitude": 151.1183
  },
  {
    "place_name": "Caringbah",
    "state_code": "NSW",
    "latitude": -34.0473,
    "longitude": 151.1205
  },
  {
    "place_name": "Caringbah South",
    "state_code": "NSW",
    "latitude": -34.0566,
    "longitude": 151.1215
  },
  {
    "place_name": "Port Hacking",
    "state_code": "NSW",
    "latitude": -34.0679,
    "longitude": 151.1256
  },
  {
    "place_name": "Dolans Bay",
    "state_code": "NSW",
    "latitude": -34.0665,
    "longitude": 151.1281
  },
  {
    "place_name": "Lilli Pilli",
    "state_code": "NSW",
    "latitude": -34.0683,
    "longitude": 151.1157
  },
  {
    "place_name": "Greenhills Beach",
    "state_code": "NSW",
    "latitude": -34.0328,
    "longitude": 151.1762
  },
  {
    "place_name": "Burraneer",
    "state_code": "NSW",
    "latitude": -34.0562,
    "longitude": 151.1381
  },
  {
    "place_name": "Maianbar",
    "state_code": "NSW",
    "latitude": -34.0837,
    "longitude": 151.1241
  },
  {
    "place_name": "Woolooware",
    "state_code": "NSW",
    "latitude": -34.0458,
    "longitude": 151.1431
  },
  {
    "place_name": "Bundeena",
    "state_code": "NSW",
    "latitude": -34.0838,
    "longitude": 151.1502
  },
  {
    "place_name": "Cronulla",
    "state_code": "NSW",
    "latitude": -34.0625,
    "longitude": 151.1496
  },
  {
    "place_name": "Kurnell",
    "state_code": "NSW",
    "latitude": -34.0109,
    "longitude": 151.2051
  },
  {
    "place_name": "Audley",
    "state_code": "NSW",
    "latitude": -34.106,
    "longitude": 151.0832
  },
  {
    "place_name": "Sutherland",
    "state_code": "NSW",
    "latitude": -34.031,
    "longitude": 151.0553
  },
  {
    "place_name": "Loftus",
    "state_code": "NSW",
    "latitude": -34.0447,
    "longitude": 151.0465
  },
  {
    "place_name": "Kirrawee",
    "state_code": "NSW",
    "latitude": -34.0383,
    "longitude": 151.069
  },
  {
    "place_name": "Woronora",
    "state_code": "NSW",
    "latitude": -34.0244,
    "longitude": 151.0386
  },
  {
    "place_name": "Kareela",
    "state_code": "NSW",
    "latitude": -34.0134,
    "longitude": 151.0835
  },
  {
    "place_name": "Grays Point",
    "state_code": "NSW",
    "latitude": -34.0587,
    "longitude": 151.086
  },
  {
    "place_name": "Waterfall",
    "state_code": "NSW",
    "latitude": -34.1357,
    "longitude": 150.9923
  },
  {
    "place_name": "Woronora Heights",
    "state_code": "NSW",
    "latitude": -34.0356,
    "longitude": 151.0273
  },
  {
    "place_name": "Heathcote",
    "state_code": "NSW",
    "latitude": -34.0841,
    "longitude": 151.013
  },
  {
    "place_name": "Yarrawarrah",
    "state_code": "NSW",
    "latitude": -34.0535,
    "longitude": 151.0356
  },
  {
    "place_name": "Engadine",
    "state_code": "NSW",
    "latitude": -34.0656,
    "longitude": 151.0127
  },
  {
    "place_name": "Lucas Heights",
    "state_code": "NSW",
    "latitude": -34.06,
    "longitude": 150.9807
  },
  {
    "place_name": "Illawong",
    "state_code": "NSW",
    "latitude": -34,
    "longitude": 151.0333
  },
  {
    "place_name": "Menai Central",
    "state_code": "NSW",
    "latitude": -34.06,
    "longitude": 150.9807
  },
  {
    "place_name": "Menai",
    "state_code": "NSW",
    "latitude": -34.0167,
    "longitude": 151.0167
  },
  {
    "place_name": "Bangor",
    "state_code": "NSW",
    "latitude": -34.0167,
    "longitude": 151.0333
  },
  {
    "place_name": "Alfords Point",
    "state_code": "NSW",
    "latitude": -33.9874,
    "longitude": 151.0253
  },
  {
    "place_name": "Barden Ridge",
    "state_code": "NSW",
    "latitude": -34.0341,
    "longitude": 151.0119
  },
  {
    "place_name": "Wyoming",
    "state_code": "NSW",
    "latitude": -33.4039,
    "longitude": 151.3625
  },
  {
    "place_name": "Somersby",
    "state_code": "NSW",
    "latitude": -33.3667,
    "longitude": 151.2833
  },
  {
    "place_name": "West Gosford",
    "state_code": "NSW",
    "latitude": -33.4258,
    "longitude": 151.317
  },
  {
    "place_name": "Mount Elliot",
    "state_code": "NSW",
    "latitude": -33.4009,
    "longitude": 151.3879
  },
  {
    "place_name": "Erina",
    "state_code": "NSW",
    "latitude": -33.4322,
    "longitude": 151.3897
  },
  {
    "place_name": "Niagara Park",
    "state_code": "NSW",
    "latitude": -33.3764,
    "longitude": 151.3486
  },
  {
    "place_name": "Central Mangrove",
    "state_code": "NSW",
    "latitude": -33.293,
    "longitude": 151.2387
  },
  {
    "place_name": "Mangrove Mountain",
    "state_code": "NSW",
    "latitude": -33.3,
    "longitude": 151.2
  },
  {
    "place_name": "Glenworth Valley",
    "state_code": "NSW",
    "latitude": -33.4333,
    "longitude": 151.1833
  },
  {
    "place_name": "Kariong",
    "state_code": "NSW",
    "latitude": -33.4397,
    "longitude": 151.2945
  },
  {
    "place_name": "Narara",
    "state_code": "NSW",
    "latitude": -33.4,
    "longitude": 151.35
  },
  {
    "place_name": "Tascott",
    "state_code": "NSW",
    "latitude": -33.4502,
    "longitude": 151.3137
  },
  {
    "place_name": "Peats Ridge",
    "state_code": "NSW",
    "latitude": -33.3167,
    "longitude": 151.2333
  },
  {
    "place_name": "Mount White",
    "state_code": "NSW",
    "latitude": -33.4532,
    "longitude": 151.2004
  },
  {
    "place_name": "Kulnura",
    "state_code": "NSW",
    "latitude": -33.205,
    "longitude": 151.1759
  },
  {
    "place_name": "Springfield",
    "state_code": "NSW",
    "latitude": -33.4294,
    "longitude": 151.3574
  },
  {
    "place_name": "Point Clare",
    "state_code": "NSW",
    "latitude": -33.4438,
    "longitude": 151.3273
  },
  {
    "place_name": "Mooney Mooney Creek",
    "state_code": "NSW",
    "latitude": -33.4826,
    "longitude": 151.2275
  },
  {
    "place_name": "Lisarow",
    "state_code": "NSW",
    "latitude": -33.3833,
    "longitude": 151.3667
  },
  {
    "place_name": "Gosford",
    "state_code": "NSW",
    "latitude": -33.4244,
    "longitude": 151.344
  },
  {
    "place_name": "East Gosford",
    "state_code": "NSW",
    "latitude": -33.4387,
    "longitude": 151.3534
  },
  {
    "place_name": "Mangrove Creek",
    "state_code": "NSW",
    "latitude": -33.35,
    "longitude": 151.15
  },
  {
    "place_name": "Upper Mangrove",
    "state_code": "NSW",
    "latitude": -33.2833,
    "longitude": 151.1167
  },
  {
    "place_name": "North Gosford",
    "state_code": "NSW",
    "latitude": -33.389,
    "longitude": 151.2859
  },
  {
    "place_name": "Matcham",
    "state_code": "NSW",
    "latitude": -33.4167,
    "longitude": 151.4167
  },
  {
    "place_name": "Ten Mile Hollow",
    "state_code": "NSW",
    "latitude": -33.389,
    "longitude": 151.2859
  },
  {
    "place_name": "Erina Fair",
    "state_code": "NSW",
    "latitude": -33.3232,
    "longitude": 151.2282
  },
  {
    "place_name": "Point Frederick",
    "state_code": "NSW",
    "latitude": -33.4404,
    "longitude": 151.3432
  },
  {
    "place_name": "Holgate",
    "state_code": "NSW",
    "latitude": -33.4,
    "longitude": 151.4167
  },
  {
    "place_name": "Bucketty",
    "state_code": "NSW",
    "latitude": -33.389,
    "longitude": 151.2859
  },
  {
    "place_name": "Lower Mangrove",
    "state_code": "NSW",
    "latitude": -33.4,
    "longitude": 151.15
  },
  {
    "place_name": "Wendoree Park",
    "state_code": "NSW",
    "latitude": -33.4566,
    "longitude": 151.1675
  },
  {
    "place_name": "Greengrove",
    "state_code": "NSW",
    "latitude": -33.3833,
    "longitude": 151.15
  },
  {
    "place_name": "Calga",
    "state_code": "NSW",
    "latitude": -33.4312,
    "longitude": 151.2275
  },
  {
    "place_name": "Picketts Valley",
    "state_code": "NSW",
    "latitude": -33.4553,
    "longitude": 151.4109
  },
  {
    "place_name": "Bouddi",
    "state_code": "NSW",
    "latitude": -33.518,
    "longitude": 151.3858
  },
  {
    "place_name": "Davistown",
    "state_code": "NSW",
    "latitude": -33.4856,
    "longitude": 151.3615
  },
  {
    "place_name": "Copacabana",
    "state_code": "NSW",
    "latitude": -33.4869,
    "longitude": 151.4359
  },
  {
    "place_name": "Green Point",
    "state_code": "NSW",
    "latitude": -32.2493,
    "longitude": 152.5176
  },
  {
    "place_name": "Yattalunga",
    "state_code": "NSW",
    "latitude": -33.4809,
    "longitude": 151.3966
  },
  {
    "place_name": "Kincumber",
    "state_code": "NSW",
    "latitude": -33.4674,
    "longitude": 151.381
  },
  {
    "place_name": "Macmasters Beach",
    "state_code": "NSW",
    "latitude": -33.4966,
    "longitude": 151.4221
  },
  {
    "place_name": "Avoca Beach",
    "state_code": "NSW",
    "latitude": -33.4682,
    "longitude": 151.4339
  },
  {
    "place_name": "Saratoga",
    "state_code": "NSW",
    "latitude": -33.4756,
    "longitude": 151.3521
  },
  {
    "place_name": "Bensville",
    "state_code": "NSW",
    "latitude": -33.4976,
    "longitude": 151.3808
  },
  {
    "place_name": "Kincumber South",
    "state_code": "NSW",
    "latitude": -33.4866,
    "longitude": 151.377
  },
  {
    "place_name": "Central Coast Mc",
    "state_code": "NSW",
    "latitude": -33.344,
    "longitude": 151.382
  },
  {
    "place_name": "Horsfield Bay",
    "state_code": "NSW",
    "latitude": -33.4924,
    "longitude": 151.301
  },
  {
    "place_name": "Phegans Bay",
    "state_code": "NSW",
    "latitude": -33.4878,
    "longitude": 151.3082
  },
  {
    "place_name": "Woy Woy Bay",
    "state_code": "NSW",
    "latitude": -33.4834,
    "longitude": 151.312
  },
  {
    "place_name": "Little Wobby",
    "state_code": "NSW",
    "latitude": -33.5454,
    "longitude": 151.2564
  },
  {
    "place_name": "Patonga",
    "state_code": "NSW",
    "latitude": -33.5486,
    "longitude": 151.2719
  },
  {
    "place_name": "Koolewong",
    "state_code": "NSW",
    "latitude": -33.465,
    "longitude": 151.3157
  },
  {
    "place_name": "Pearl Beach",
    "state_code": "NSW",
    "latitude": -33.5444,
    "longitude": 151.3034
  },
  {
    "place_name": "Blackwall",
    "state_code": "NSW",
    "latitude": -33.5019,
    "longitude": 151.3237
  },
  {
    "place_name": "Wondabyne",
    "state_code": "NSW",
    "latitude": -33.4876,
    "longitude": 151.262
  },
  {
    "place_name": "Woy Woy",
    "state_code": "NSW",
    "latitude": -33.4843,
    "longitude": 151.3247
  },
  {
    "place_name": "Killcare Heights",
    "state_code": "NSW",
    "latitude": -33.5239,
    "longitude": 151.3682
  },
  {
    "place_name": "Booker Bay",
    "state_code": "NSW",
    "latitude": -33.5167,
    "longitude": 151.35
  },
  {
    "place_name": "Daleys Point",
    "state_code": "NSW",
    "latitude": -33.4969,
    "longitude": 151.355
  },
  {
    "place_name": "Empire Bay",
    "state_code": "NSW",
    "latitude": -33.4939,
    "longitude": 151.3629
  },
  {
    "place_name": "Hardys Bay",
    "state_code": "NSW",
    "latitude": -33.5247,
    "longitude": 151.3617
  },
  {
    "place_name": "Pretty Beach",
    "state_code": "NSW",
    "latitude": -33.5167,
    "longitude": 151.35
  },
  {
    "place_name": "Box Head",
    "state_code": "NSW",
    "latitude": -33.5308,
    "longitude": 151.355
  },
  {
    "place_name": "Killcare",
    "state_code": "NSW",
    "latitude": -33.5167,
    "longitude": 151.3667
  },
  {
    "place_name": "St Huberts Island",
    "state_code": "NSW",
    "latitude": -33.4956,
    "longitude": 151.3462
  },
  {
    "place_name": "Umina Beach",
    "state_code": "NSW",
    "latitude": -33.5231,
    "longitude": 151.3132
  },
  {
    "place_name": "Ettalong Beach",
    "state_code": "NSW",
    "latitude": -33.5106,
    "longitude": 151.3304
  },
  {
    "place_name": "Wagstaffe",
    "state_code": "NSW",
    "latitude": -33.5236,
    "longitude": 151.3409
  },
  {
    "place_name": "Palmdale",
    "state_code": "NSW",
    "latitude": -33.3333,
    "longitude": 151.3667
  },
  {
    "place_name": "Palm Grove",
    "state_code": "NSW",
    "latitude": -33.3333,
    "longitude": 151.3167
  },
  {
    "place_name": "Fountaindale",
    "state_code": "NSW",
    "latitude": -33.3477,
    "longitude": 151.4011
  },
  {
    "place_name": "Kangy Angy",
    "state_code": "NSW",
    "latitude": -33.3188,
    "longitude": 151.3964
  },
  {
    "place_name": "Ourimbah",
    "state_code": "NSW",
    "latitude": -33.3667,
    "longitude": 151.4333
  },
  {
    "place_name": "Wybung",
    "state_code": "NSW",
    "latitude": -33.2192,
    "longitude": 151.4569
  },
  {
    "place_name": "Yarramalong",
    "state_code": "NSW",
    "latitude": -33.2333,
    "longitude": 151.2833
  },
  {
    "place_name": "Cedar Brush Creek",
    "state_code": "NSW",
    "latitude": -33.1667,
    "longitude": 151.2833
  },
  {
    "place_name": "Kiar",
    "state_code": "NSW",
    "latitude": -33.2012,
    "longitude": 151.4376
  },
  {
    "place_name": "Frazer Park",
    "state_code": "NSW",
    "latitude": -33.2192,
    "longitude": 151.4569
  },
  {
    "place_name": "Lake Munmorah",
    "state_code": "NSW",
    "latitude": -33.1972,
    "longitude": 151.5824
  },
  {
    "place_name": "Dooralong",
    "state_code": "NSW",
    "latitude": -33.1833,
    "longitude": 151.35
  },
  {
    "place_name": "Wadalba",
    "state_code": "NSW",
    "latitude": -33.2723,
    "longitude": 151.4649
  },
  {
    "place_name": "Bushells Ridge",
    "state_code": "NSW",
    "latitude": -33.21,
    "longitude": 151.4747
  },
  {
    "place_name": "Mardi",
    "state_code": "NSW",
    "latitude": -33.2937,
    "longitude": 151.4015
  },
  {
    "place_name": "Little Jilliby",
    "state_code": "NSW",
    "latitude": -33.2407,
    "longitude": 151.3701
  },
  {
    "place_name": "Warnervale",
    "state_code": "NSW",
    "latitude": -33.2466,
    "longitude": 151.4517
  },
  {
    "place_name": "Gwandalan",
    "state_code": "NSW",
    "latitude": -33.1354,
    "longitude": 151.5829
  },
  {
    "place_name": "Alison",
    "state_code": "NSW",
    "latitude": -33.2768,
    "longitude": 151.4021
  },
  {
    "place_name": "Mannering Park",
    "state_code": "NSW",
    "latitude": -33.1581,
    "longitude": 151.5348
  },
  {
    "place_name": "Freemans",
    "state_code": "NSW",
    "latitude": -33.2063,
    "longitude": 151.6012
  },
  {
    "place_name": "Tacoma South",
    "state_code": "NSW",
    "latitude": -33.293,
    "longitude": 151.4534
  },
  {
    "place_name": "Halloran",
    "state_code": "NSW",
    "latitude": -33.2323,
    "longitude": 151.4367
  },
  {
    "place_name": "Watanobbi",
    "state_code": "NSW",
    "latitude": -33.2677,
    "longitude": 151.4225
  },
  {
    "place_name": "Jilliby",
    "state_code": "NSW",
    "latitude": -33.2261,
    "longitude": 151.4168
  },
  {
    "place_name": "Crangan Bay",
    "state_code": "NSW",
    "latitude": -33.1735,
    "longitude": 151.5882
  },
  {
    "place_name": "Wyong",
    "state_code": "NSW",
    "latitude": -33.2825,
    "longitude": 151.4233
  },
  {
    "place_name": "Durren Durren",
    "state_code": "NSW",
    "latitude": -33.2,
    "longitude": 151.4
  },
  {
    "place_name": "Point Wolstoncroft",
    "state_code": "NSW",
    "latitude": -33.1203,
    "longitude": 151.5844
  },
  {
    "place_name": "Moonee",
    "state_code": "NSW",
    "latitude": -30.2057,
    "longitude": 153.1529
  },
  {
    "place_name": "Tacoma",
    "state_code": "NSW",
    "latitude": -33.2855,
    "longitude": 151.4537
  },
  {
    "place_name": "Kingfisher Shores",
    "state_code": "NSW",
    "latitude": -33.1683,
    "longitude": 151.5531
  },
  {
    "place_name": "Wyong Creek",
    "state_code": "NSW",
    "latitude": -33.2667,
    "longitude": 151.3667
  },
  {
    "place_name": "Chain Valley Bay",
    "state_code": "NSW",
    "latitude": -33.1724,
    "longitude": 151.5714
  },
  {
    "place_name": "Ravensdale",
    "state_code": "NSW",
    "latitude": -33.1744,
    "longitude": 151.3007
  },
  {
    "place_name": "Rocky Point",
    "state_code": "NSW",
    "latitude": -33.2934,
    "longitude": 151.4699
  },
  {
    "place_name": "Wyee Point",
    "state_code": "NSW",
    "latitude": -33.1278,
    "longitude": 151.5131
  },
  {
    "place_name": "Lemon Tree",
    "state_code": "NSW",
    "latitude": -33.1492,
    "longitude": 151.3635
  },
  {
    "place_name": "Wyee",
    "state_code": "NSW",
    "latitude": -33.1825,
    "longitude": 151.488
  },
  {
    "place_name": "Kanwal",
    "state_code": "NSW",
    "latitude": -33.253,
    "longitude": 151.4911
  },
  {
    "place_name": "Wallarah",
    "state_code": "NSW",
    "latitude": -33.2291,
    "longitude": 151.4547
  },
  {
    "place_name": "Tuggerah",
    "state_code": "NSW",
    "latitude": -33.3167,
    "longitude": 151.4167
  },
  {
    "place_name": "Tuggerawong",
    "state_code": "NSW",
    "latitude": -33.2804,
    "longitude": 151.4804
  },
  {
    "place_name": "Woongarrah",
    "state_code": "NSW",
    "latitude": -33.2413,
    "longitude": 151.4756
  },
  {
    "place_name": "Summerland Point",
    "state_code": "NSW",
    "latitude": -33.1409,
    "longitude": 151.5656
  },
  {
    "place_name": "Wyongah",
    "state_code": "NSW",
    "latitude": -33.2747,
    "longitude": 151.489
  },
  {
    "place_name": "Hamlyn Terrace",
    "state_code": "NSW",
    "latitude": -33.2512,
    "longitude": 151.4763
  },
  {
    "place_name": "Terrigal",
    "state_code": "NSW",
    "latitude": -33.4482,
    "longitude": 151.4467
  },
  {
    "place_name": "Wamberal",
    "state_code": "NSW",
    "latitude": -33.4155,
    "longitude": 151.4456
  },
  {
    "place_name": "Erina Heights",
    "state_code": "NSW",
    "latitude": -33.4252,
    "longitude": 151.3995
  },
  {
    "place_name": "Forresters Beach",
    "state_code": "NSW",
    "latitude": -33.407,
    "longitude": 151.476
  },
  {
    "place_name": "North Avoca",
    "state_code": "NSW",
    "latitude": -33.4561,
    "longitude": 151.4351
  },
  {
    "place_name": "Blue Bay",
    "state_code": "NSW",
    "latitude": -33.3541,
    "longitude": 151.5002
  },
  {
    "place_name": "Killarney Vale",
    "state_code": "NSW",
    "latitude": -33.3549,
    "longitude": 151.4722
  },
  {
    "place_name": "Bateau Bay",
    "state_code": "NSW",
    "latitude": -33.3833,
    "longitude": 151.4667
  },
  {
    "place_name": "Bay Village",
    "state_code": "NSW",
    "latitude": -33.3549,
    "longitude": 151.4722
  },
  {
    "place_name": "Tumbi Umbi",
    "state_code": "NSW",
    "latitude": -33.3667,
    "longitude": 151.45
  },
  {
    "place_name": "Chittaway Point",
    "state_code": "NSW",
    "latitude": -33.3236,
    "longitude": 151.4419
  },
  {
    "place_name": "Long Jetty",
    "state_code": "NSW",
    "latitude": -33.358,
    "longitude": 151.4814
  },