[
  {
    "place_name": "Melbourne",
    "state_code": "VIC",
    "latitude": -37.814,
    "longitude": 144.9633
  },
  {
    "place_name": "Melbourne",
    "state_code": "VIC",
    "latitude": -37.814,
    "longitude": 144.9633
  },
  {
    "place_name": "East Melbourne",
    "state_code": "VIC",
    "latitude": -37.8167,
    "longitude": 144.9879
  },
  {
    "place_name": "West Melbourne",
    "state_code": "VIC",
    "latitude": -37.8101,
    "longitude": 144.95
  },
  {
    "place_name": "Melbourne",
    "state_code": "VIC",
    "latitude": -37.814,
    "longitude": 144.9633
  },
  {
    "place_name": "St Kilda Road Central",
    "state_code": "VIC",
    "latitude": -37.814,
    "longitude": 144.9633
  },
  {
    "place_name": "St Kilda Road Melbourne",
    "state_code": "VIC",
    "latitude": -37.814,
    "longitude": 144.9633
  },
  {
    "place_name": "World Trade Centre",
    "state_code": "VIC",
    "latitude": -37.8152,
    "longitude": 144.9632
  },
  {
    "place_name": "South Wharf",
    "state_code": "VIC",
    "latitude": -37.8253,
    "longitude": 144.9522
  },
  {
    "place_name": "Southbank",
    "state_code": "VIC",
    "latitude": -37.8228,
    "longitude": 144.9643
  },
  {
    "place_name": "Docklands",
    "state_code": "VIC",
    "latitude": -37.8149,
    "longitude": 144.9505
  },
  {
    "place_name": "University Of Melbourne",
    "state_code": "VIC",
    "latitude": -37.7958,
    "longitude": 144.9612
  },
  {
    "place_name": "Seddon",
    "state_code": "VIC",
    "latitude": -37.8061,
    "longitude": 144.8907
  },
  {
    "place_name": "Seddon West",
    "state_code": "VIC",
    "latitude": -37.7995,
    "longitude": 144.8963
  },
  {
    "place_name": "Footscray",
    "state_code": "VIC",
    "latitude": -37.8,
    "longitude": 144.9
  },
  {
    "place_name": "Maidstone",
    "state_code": "VIC",
    "latitude": -37.7803,
    "longitude": 144.8735
  },
  {
    "place_name": "Tottenham",
    "state_code": "VIC",
    "latitude": -37.7985,
    "longitude": 144.8626
  },
  {
    "place_name": "West Footscray",
    "state_code": "VIC",
    "latitude": -37.7975,
    "longitude": 144.8773
  },
  {
    "place_name": "Brooklyn",
    "state_code": "VIC",
    "latitude": -37.8161,
    "longitude": 144.8415
  },
  {
    "place_name": "Kingsville",
    "state_code": "VIC",
    "latitude": -37.8082,
    "longitude": 144.8791
  },
  {
    "place_name": "Yarraville",
    "state_code": "VIC",
    "latitude": -37.8167,
    "longitude": 144.9
  },
  {
    "place_name": "Yarraville West",
    "state_code": "VIC",
    "latitude": -37.8249,
    "longitude": 144.8708
  },
  {
    "place_name": "Newport",
    "state_code": "VIC",
    "latitude": -37.8443,
    "longitude": 144.8848
  },
  {
    "place_name": "Spotswood",
    "state_code": "VIC",
    "latitude": -37.8298,
    "longitude": 144.8852
  },
  {
    "place_name": "South Kingsville",
    "state_code": "VIC",
    "latitude": -37.8302,
    "longitude": 144.8709
  },
  {
    "place_name": "Williamstown North",
    "state_code": "VIC",
    "latitude": -37.8552,
    "longitude": 144.8826
  },
  {
    "place_name": "Williamstown",
    "state_code": "VIC",
    "latitude": -37.857,
    "longitude": 144.8977
  },
  {
    "place_name": "Seaholme",
    "state_code": "VIC",
    "latitude": -37.864,
    "longitude": 144.845
  },
  {
    "place_name": "Altona",
    "state_code": "VIC",
    "latitude": -37.8696,
    "longitude": 144.8304
  },
  {
    "place_name": "Braybrook",
    "state_code": "VIC",
    "latitude": -37.7867,
    "longitude": 144.8548
  },
  {
    "place_name": "Robinson",
    "state_code": "VIC",
    "latitude": -37.7867,
    "longitude": 144.8548
  },
  {
    "place_name": "Sunshine West",
    "state_code": "VIC",
    "latitude": -37.7912,
    "longitude": 144.8164
  },
  {
    "place_name": "Albion",
    "state_code": "VIC",
    "latitude": -37.7667,
    "longitude": 144.8333
  },
  {
    "place_name": "Glengala",
    "state_code": "VIC",
    "latitude": -37.775,
    "longitude": 144.8333
  },
  {
    "place_name": "Sunshine North",
    "state_code": "VIC",
    "latitude": -37.7699,
    "longitude": 144.8279
  },
  {
    "place_name": "Sunshine",
    "state_code": "VIC",
    "latitude": -37.7833,
    "longitude": 144.8333
  },
  {
    "place_name": "Albanvale",
    "state_code": "VIC",
    "latitude": -37.7461,
    "longitude": 144.7686
  },
  {
    "place_name": "St Albans",
    "state_code": "VIC",
    "latitude": -37.745,
    "longitude": 144.8005
  },
  {
    "place_name": "Kealba",
    "state_code": "VIC",
    "latitude": -37.7371,
    "longitude": 144.8283
  },
  {
    "place_name": "Kings Park",
    "state_code": "VIC",
    "latitude": -37.734,
    "longitude": 144.7777
  },
  {
    "place_name": "Deer Park East",
    "state_code": "VIC",
    "latitude": -37.7764,
    "longitude": 144.8016
  },
  {
    "place_name": "Ardeer",
    "state_code": "VIC",
    "latitude": -37.7759,
    "longitude": 144.8014
  },
  {
    "place_name": "Deer Park",
    "state_code": "VIC",
    "latitude": -37.7667,
    "longitude": 144.7833
  },
  {
    "place_name": "Ravenhall",
    "state_code": "VIC",
    "latitude": -37.7655,
    "longitude": 144.751
  },
  {
    "place_name": "Deer Park North",
    "state_code": "VIC",
    "latitude": -37.7541,
    "longitude": 144.7651
  },
  {
    "place_name": "Burnside",
    "state_code": "VIC",
    "latitude": -37.7494,
    "longitude": 144.753
  },
  {
    "place_name": "Cairnlea",
    "state_code": "VIC",
    "latitude": -37.7593,
    "longitude": 144.7878
  },
  {
    "place_name": "Burnside Heights",
    "state_code": "VIC",
    "latitude": -37.7269,
    "longitude": 144.7523
  },
  {
    "place_name": "Caroline Springs",
    "state_code": "VIC",
    "latitude": -37.7412,
    "longitude": 144.7363
  },
  {
    "place_name": "Wyndham Vale",
    "state_code": "VIC",
    "latitude": -37.8415,
    "longitude": 144.541
  },
  {
    "place_name": "Mount Cottrell",
    "state_code": "VIC",
    "latitude": -37.8167,
    "longitude": 144.5833
  },
  {
    "place_name": "Mambourin",
    "state_code": "VIC",
    "latitude": -37.8755,
    "longitude": 144.5032
  },
  {
    "place_name": "Altona North",
    "state_code": "VIC",
    "latitude": -37.8349,
    "longitude": 144.8474
  },
  {
    "place_name": "Altona Gate",
    "state_code": "VIC",
    "latitude": -37.8349,
    "longitude": 144.8474
  },
  {
    "place_name": "Altona East",
    "state_code": "VIC",
    "latitude": -37.8349,
    "longitude": 144.8474
  },
  {
    "place_name": "Laverton North",
    "state_code": "VIC",
    "latitude": -37.8205,
    "longitude": 144.8159
  },
  {
    "place_name": "Williams Landing",
    "state_code": "VIC",
    "latitude": -37.8619,
    "longitude": 144.7437
  },
  {
    "place_name": "Altona Meadows",
    "state_code": "VIC",
    "latitude": -37.8841,
    "longitude": 144.7837
  },
  {
    "place_name": "Laverton",
    "state_code": "VIC",
    "latitude": -37.862,
    "longitude": 144.7698
  },
  {
    "place_name": "Seabrook",
    "state_code": "VIC",
    "latitude": -37.8809,
    "longitude": 144.7587
  },
  {
    "place_name": "Truganina",
    "state_code": "VIC",
    "latitude": -37.8167,
    "longitude": 144.75
  },
  {
    "place_name": "Hoppers Crossing",
    "state_code": "VIC",
    "latitude": -37.8826,
    "longitude": 144.7003
  },
  {
    "place_name": "Tarneit",
    "state_code": "VIC",
    "latitude": -37.8667,
    "longitude": 144.6667
  },
  {
    "place_name": "Point Cook",
    "state_code": "VIC",
    "latitude": -37.9148,
    "longitude": 144.7509
  },
  {
    "place_name": "Quandong",
    "state_code": "VIC",
    "latitude": -37.8139,
    "longitude": 144.4951
  },
  {
    "place_name": "Werribee",
    "state_code": "VIC",
    "latitude": -37.9,
    "longitude": 144.6667
  },
  {
    "place_name": "Derrimut",
    "state_code": "VIC",
    "latitude": -37.7924,
    "longitude": 144.7699
  },
  {
    "place_name": "Cocoroc",
    "state_code": "VIC",
    "latitude": -37.9728,
    "longitude": 144.5643
  },
  {
    "place_name": "Werribee South",
    "state_code": "VIC",
    "latitude": -37.9475,
    "longitude": 144.7167
  },
  {
    "place_name": "Flemington",
    "state_code": "VIC",
    "latitude": -37.7882,
    "longitude": 144.93
  },
  {
    "place_name": "Kensington",
    "state_code": "VIC",
    "latitude": -37.7833,
    "longitude": 144.9333
  },
  {
    "place_name": "Maribyrnong",
    "state_code": "VIC",
    "latitude": -37.7833,
    "longitude": 144.8833
  },
  {
    "place_name": "Highpoint City",
    "state_code": "VIC",
    "latitude": -37.7747,
    "longitude": 144.8999
  },
  {
    "place_name": "Travancore",
    "state_code": "VIC",
    "latitude": -37.7808,
    "longitude": 144.9354
  },
  {
    "place_name": "Ascot Vale",
    "state_code": "VIC",
    "latitude": -37.7833,
    "longitude": 144.9167
  },
  {
    "place_name": "Keilor East",
    "state_code": "VIC",
    "latitude": -37.7326,
    "longitude": 144.865
  },
  {
    "place_name": "Avondale Heights",
    "state_code": "VIC",
    "latitude": -37.7616,
    "longitude": 144.8626
  },
  {
    "place_name": "Keilor North",
    "state_code": "VIC",
    "latitude": -37.6963,
    "longitude": 144.8047
  },
  {
    "place_name": "Keilor",
    "state_code": "VIC",
    "latitude": -37.7167,
    "longitude": 144.8333
  },
  {
    "place_name": "Hillside",
    "state_code": "VIC",
    "latitude": -37.6905,
    "longitude": 144.7417
  },
  {
    "place_name": "Calder Park",
    "state_code": "VIC",
    "latitude": -37.6798,
    "longitude": 144.7611
  },
  {
    "place_name": "Sydenham",
    "state_code": "VIC",
    "latitude": -37.7,
    "longitude": 144.7667
  },
  {
    "place_name": "Taylors Hill",
    "state_code": "VIC",
    "latitude": -37.7099,
    "longitude": 144.7548
  },
  {
    "place_name": "Delahey",
    "state_code": "VIC",
    "latitude": -37.7198,
    "longitude": 144.7773
  },
  {
    "place_name": "Keilor Downs",
    "state_code": "VIC",
    "latitude": -37.7234,
    "longitude": 144.8084
  },
  {
    "place_name": "Watergardens",
    "state_code": "VIC",
    "latitude": -37.6986,
    "longitude": 144.7863
  },
  {
    "place_name": "Taylors Lakes",
    "state_code": "VIC",
    "latitude": -37.6986,
    "longitude": 144.7863
  },
  {
    "place_name": "Keilor Lodge",
    "state_code": "VIC",
    "latitude": -37.7,
    "longitude": 144.8033
  },
  {
    "place_name": "Moonee Ponds",
    "state_code": "VIC",
    "latitude": -37.7667,
    "longitude": 144.9167
  },
  {
    "place_name": "Essendon",
    "state_code": "VIC",
    "latitude": -37.7667,
    "longitude": 144.9167
  },
  {
    "place_name": "Aberfeldie",
    "state_code": "VIC",
    "latitude": -37.7596,
    "longitude": 144.8974
  },
  {
    "place_name": "Essendon West",
    "state_code": "VIC",
    "latitude": -37.7576,
    "longitude": 144.879
  },
  {
    "place_name": "Strathmore",
    "state_code": "VIC",
    "latitude": -37.6333,
    "longitude": 142.4833
  },
  {
    "place_name": "Strathmore Heights",
    "state_code": "VIC",
    "latitude": -37.7133,
    "longitude": 144.8969
  },
  {
    "place_name": "Essendon North",
    "state_code": "VIC",
    "latitude": -37.7422,
    "longitude": 144.9055
  },
  {
    "place_name": "Essendon Fields",
    "state_code": "VIC",
    "latitude": -37.7245,
    "longitude": 144.8989
  },
  {
    "place_name": "Cross Keys",
    "state_code": "VIC",
    "latitude": -37.7133,
    "longitude": 144.8969
  },
  {
    "place_name": "Keilor Park",
    "state_code": "VIC",
    "latitude": -37.7203,
    "longitude": 144.8542
  },
  {
    "place_name": "Niddrie North",
    "state_code": "VIC",
    "latitude": -37.7311,
    "longitude": 144.8867
  },
  {
    "place_name": "Airport West",
    "state_code": "VIC",
    "latitude": -37.7247,
    "longitude": 144.8813
  },
  {
    "place_name": "Niddrie",
    "state_code": "VIC",
    "latitude": -37.7375,
    "longitude": 144.8921
  },
  {
    "place_name": "Gowanbrae",
    "state_code": "VIC",
    "latitude": -37.7082,
    "longitude": 144.8908
  },
  {
    "place_name": "Tullamarine",
    "state_code": "VIC",
    "latitude": -37.7013,
    "longitude": 144.881
  },
  {
    "place_name": "Gladstone Park",
    "state_code": "VIC",
    "latitude": -37.6874,
    "longitude": 144.8868
  },
  {
    "place_name": "Pascoe Vale",
    "state_code": "VIC",
    "latitude": -37.7333,
    "longitude": 144.9333
  },
  {
    "place_name": "Pascoe Vale South",
    "state_code": "VIC",
    "latitude": -37.7397,
    "longitude": 144.9461
  },
  {
    "place_name": "Melbourne Airport",
    "state_code": "VIC",
    "latitude": -37.6743,
    "longitude": 144.8518
  },
  {
    "place_name": "Oak Park",
    "state_code": "VIC",
    "latitude": -37.7184,
    "longitude": 144.9195
  },
  {
    "place_name": "Glenroy",
    "state_code": "VIC",
    "latitude": -37.7,
    "longitude": 144.9333
  },
  {
    "place_name": "Hadfield",
    "state_code": "VIC",
    "latitude": -37.7073,
    "longitude": 144.9416
  },
  {
    "place_name": "Dallas",
    "state_code": "VIC",
    "latitude": -37.6708,
    "longitude": 144.9354
  },
  {
    "place_name": "Broadmeadows",
    "state_code": "VIC",
    "latitude": -37.6802,
    "longitude": 144.9188
  },
  {
    "place_name": "Jacana",
    "state_code": "VIC",
    "latitude": -37.6878,
    "longitude": 144.9111
  },
  {
    "place_name": "Coolaroo",
    "state_code": "VIC",
    "latitude": -37.6568,
    "longitude": 144.9346
  },
  {
    "place_name": "Meadow Heights",
    "state_code": "VIC",
    "latitude": -37.6512,
    "longitude": 144.9186
  },
  {
    "place_name": "Westmeadows",
    "state_code": "VIC",
    "latitude": -37.676,
    "longitude": 144.887
  },
  {
    "place_name": "Attwood",
    "state_code": "VIC",
    "latitude": -37.6696,
    "longitude": 144.8868
  },
  {
    "place_name": "Royal Melbourne Hospital",
    "state_code": "VIC",
    "latitude": -37.7981,
    "longitude": 144.9555
  },
  {
    "place_name": "North Melbourne",
    "state_code": "VIC",
    "latitude": -37.8,
    "longitude": 144.9667
  },
  {
    "place_name": "Hotham Hill",
    "state_code": "VIC",
    "latitude": -37.7984,
    "longitude": 144.9449
  },
  {
    "place_name": "Parkville",
    "state_code": "VIC",
    "latitude": -37.7833,
    "longitude": 144.95
  },
  {
    "place_name": "Melbourne University",
    "state_code": "VIC",
    "latitude": -37.7603,
    "longitude": 144.9502
  },
  {
    "place_name": "Carlton",
    "state_code": "VIC",
    "latitude": -37.8,
    "longitude": 144.9667
  },
  {
    "place_name": "Carlton South",
    "state_code": "VIC",
    "latitude": -37.8004,
    "longitude": 144.9681
  },
  {
    "place_name": "Princes Hill",
    "state_code": "VIC",
    "latitude": -37.7818,
    "longitude": 144.9666
  },
  {
    "place_name": "Carlton North",
    "state_code": "VIC",
    "latitude": -37.7833,
    "longitude": 144.9667
  },
  {
    "place_name": "Brunswick South",
    "state_code": "VIC",
    "latitude": -37.7603,
    "longitude": 144.9502
  },
  {
    "place_name": "Brunswick West",
    "state_code": "VIC",
    "latitude": -37.7646,
    "longitude": 144.9438
  },
  {
    "place_name": "Moreland West",
    "state_code": "VIC",
    "latitude": -37.7603,
    "longitude": 144.9502
  },
  {
    "place_name": "Moonee Vale",
    "state_code": "VIC",
    "latitude": -37.7603,
    "longitude": 144.9502
  },
  {
    "place_name": "Brunswick",
    "state_code": "VIC",
    "latitude": -37.7667,
    "longitude": 144.9667
  },
  {
    "place_name": "Brunswick North",
    "state_code": "VIC",
    "latitude": -37.7667,
    "longitude": 144.9667
  },
  {
    "place_name": "Brunswick Lower",
    "state_code": "VIC",
    "latitude": -37.7667,
    "longitude": 144.9667
  },
  {
    "place_name": "Sumner",
    "state_code": "VIC",
    "latitude": -37.7603,
    "longitude": 144.9502
  },
  {
    "place_name": "Brunswick East",
    "state_code": "VIC",
    "latitude": -37.7725,
    "longitude": 144.9724
  },
  {
    "place_name": "Coburg North",
    "state_code": "VIC",
    "latitude": -37.7287,
    "longitude": 144.9613
  },
  {
    "place_name": "Moreland",
    "state_code": "VIC",
    "latitude": -37.7603,
    "longitude": 144.9502
  },
  {
    "place_name": "Batman",
    "state_code": "VIC",
    "latitude": -37.75,
    "longitude": 144.9667
  },
  {
    "place_name": "Merlynston",
    "state_code": "VIC",
    "latitude": -37.7603,
    "longitude": 144.9502
  },
  {
    "place_name": "Coburg",
    "state_code": "VIC",
    "latitude": -37.75,
    "longitude": 144.9667
  },
  {
    "place_name": "Greenvale",
    "state_code": "VIC",
    "latitude": -37.6333,
    "longitude": 144.8667
  },
  {
    "place_name": "Fawkner",
    "state_code": "VIC",
    "latitude": -37.7167,
    "longitude": 144.9667
  },
  {
    "place_name": "Campbellfield",
    "state_code": "VIC",
    "latitude": -37.6833,
    "longitude": 144.95
  },
  {
    "place_name": "Somerton",
    "state_code": "VIC",
    "latitude": -37.65,
    "longitude": 144.9333
  },
  {
    "place_name": "Yuroke",
    "state_code": "VIC",
    "latitude": -37.5911,
    "longitude": 144.8782
  },
  {
    "place_name": "Oaklands Junction",
    "state_code": "VIC",
    "latitude": -37.615,
    "longitude": 144.8434
  },
  {
    "place_name": "Kalkallo",
    "state_code": "VIC",
    "latitude": -37.5333,
    "longitude": 144.95
  },
  {
    "place_name": "Mickleham",
    "state_code": "VIC",
    "latitude": -37.5366,
    "longitude": 144.902
  },
  {
    "place_name": "Donnybrook",
    "state_code": "VIC",
    "latitude": -37.5333,
    "longitude": 144.9833
  },
  {
    "place_name": "Roxburgh Park",
    "state_code": "VIC",
    "latitude": -37.6258,
    "longitude": 144.9255
  },
  {
    "place_name": "Craigieburn",
    "state_code": "VIC",
    "latitude": -37.6,
    "longitude": 144.95
  },
  {
    "place_name": "Fitzroy",
    "state_code": "VIC",
    "latitude": -37.7984,
    "longitude": 144.9783
  },
  {
    "place_name": "Collingwood",
    "state_code": "VIC",
    "latitude": -37.8,
    "longitude": 144.9833
  },
  {
    "place_name": "Collingwood North",
    "state_code": "VIC",
    "latitude": -37.8,
    "longitude": 144.9833
  },
  {
    "place_name": "Abbotsford",
    "state_code": "VIC",
    "latitude": -37.8,
    "longitude": 145
  },
  {
    "place_name": "Fitzroy North",
    "state_code": "VIC",
    "latitude": -37.7886,
    "longitude": 144.9788
  },
  {
    "place_name": "Clifton Hill",
    "state_code": "VIC",
    "latitude": -37.7904,
    "longitude": 144.9975
  },
  {
    "place_name": "Northcote South",
    "state_code": "VIC",
    "latitude": -37.7667,
    "longitude": 145
  },
  {
    "place_name": "Northcote",
    "state_code": "VIC",
    "latitude": -37.7667,
    "longitude": 145
  },
  {
    "place_name": "Thornbury",
    "state_code": "VIC",
    "latitude": -37.75,
    "longitude": 145
  },
  {
    "place_name": "Preston",
    "state_code": "VIC",
    "latitude": -37.75,
    "longitude": 145.0167
  },
  {
    "place_name": "Regent West",
    "state_code": "VIC",
    "latitude": -37.7241,
    "longitude": 145.0179
  },
  {
    "place_name": "Gilberton",
    "state_code": "VIC",
    "latitude": -37.75,
    "longitude": 145.0167
  },
  {
    "place_name": "Preston South",
    "state_code": "VIC",
    "latitude": -37.7241,
    "longitude": 145.0179
  },
  {
    "place_name": "Preston West",
    "state_code": "VIC",
    "latitude": -37.75,
    "longitude": 145.0167
  },
  {
    "place_name": "Northland Centre",
    "state_code": "VIC",
    "latitude": -37.7241,
    "longitude": 145.0179
  },
  {
    "place_name": "Preston Lower",
    "state_code": "VIC",
    "latitude": -37.75,
    "longitude": 145.0167
  },
  {
    "place_name": "Reservoir",
    "state_code": "VIC",
    "latitude": -37.7167,
    "longitude": 145
  },
  {
    "place_name": "Keon Park",
    "state_code": "VIC",
    "latitude": -37.7,
    "longitude": 145.0167
  },
  {
    "place_name": "Thomastown",
    "state_code": "VIC",
    "latitude": -37.6833,
    "longitude": 145.0167
  },
  {
    "place_name": "Lalor",
    "state_code": "VIC",
    "latitude": -37.6667,
    "longitude": 145.0167
  },
  {
    "place_name": "Epping Dc",
    "state_code": "VIC",
    "latitude": -37.6307,
    "longitude": 145.006
  },
  {
    "place_name": "Epping",
    "state_code": "VIC",
    "latitude": -37.65,
    "longitude": 145.0333
  },
  {
    "place_name": "Alphington",
    "state_code": "VIC",
    "latitude": -37.7804,
    "longitude": 145.0309
  },
  {
    "place_name": "Fairfield",
    "state_code": "VIC",
    "latitude": -37.7798,
    "longitude": 145.0176
  },
  {
    "place_name": "Ivanhoe",
    "state_code": "VIC",
    "latitude": -37.769,
    "longitude": 145.0431
  },
  {
    "place_name": "Ivanhoe East",
    "state_code": "VIC",
    "latitude": -37.7832,
    "longitude": 145.0525
  },
  {
    "place_name": "Ivanhoe North",
    "state_code": "VIC",
    "latitude": -37.769,
    "longitude": 145.0431
  },
  {
    "place_name": "Heidelberg West",
    "state_code": "VIC",
    "latitude": -37.75,
    "longitude": 145.0333
  },
  {
    "place_name": "Heidelberg Rgh",
    "state_code": "VIC",
    "latitude": -37.743,
    "longitude": 145.0464
  },
  {
    "place_name": "Bellfield",
    "state_code": "VIC",
    "latitude": -37.7531,
    "longitude": 145.0385
  },
  {
    "place_name": "Heidelberg Heights",
    "state_code": "VIC",
    "latitude": -37.7431,
    "longitude": 145.057
  },
  {
    "place_name": "Mill Park",
    "state_code": "VIC",
    "latitude": -37.6667,
    "longitude": 145.0667
  },
  {
    "place_name": "Kingsbury",
    "state_code": "VIC",
    "latitude": -37.7141,
    "longitude": 145.0351
  },
  {
    "place_name": "Bundoora",
    "state_code": "VIC",
    "latitude": -37.6982,
    "longitude": 145.0597
  },
  {
    "place_name": "La Trobe University",
    "state_code": "VIC",
    "latitude": -37.7062,
    "longitude": 145.0474
  },
  {
    "place_name": "Viewbank",
    "state_code": "VIC",
    "latitude": -37.7399,
    "longitude": 145.0932
  },
  {
    "place_name": "Banyule",
    "state_code": "VIC",
    "latitude": -37.7464,
    "longitude": 145.0771
  },
  {
    "place_name": "Rosanna",
    "state_code": "VIC",
    "latitude": -37.7396,
    "longitude": 145.0697
  },
  {
    "place_name": "Heidelberg",
    "state_code": "VIC",
    "latitude": -37.75,
    "longitude": 145.0667
  },
  {
    "place_name": "Eaglemont",
    "state_code": "VIC",
    "latitude": -37.7638,
    "longitude": 145.0638
  },
  {
    "place_name": "Yallambie",
    "state_code": "VIC",
    "latitude": -37.7251,
    "longitude": 145.0935
  },
  {
    "place_name": "Macleod West",
    "state_code": "VIC",
    "latitude": -37.7228,
    "longitude": 145.0817
  },
  {
    "place_name": "Macleod",
    "state_code": "VIC",
    "latitude": -37.7204,
    "longitude": 145.0698
  },
  {
    "place_name": "La Trobe University",
    "state_code": "VIC",
    "latitude": -37.7173,
    "longitude": 145.0826
  },
  {
    "place_name": "Watsonia North",
    "state_code": "VIC",
    "latitude": -37.6998,
    "longitude": 145.0847
  },
  {
    "place_name": "Watsonia",
    "state_code": "VIC",
    "latitude": -37.7167,
    "longitude": 145.0833
  },
  {
    "place_name": "Saint Helena",
    "state_code": "VIC",
    "latitude": -37.7,
    "longitude": 145.1333
  },
  {
    "place_name": "Briar Hill",
    "state_code": "VIC",
    "latitude": -37.7167,
    "longitude": 145.1167
  },
  {
    "place_name": "Greensborough",
    "state_code": "VIC",
    "latitude": -37.7046,
    "longitude": 145.103
  },
  {
    "place_name": "St Helena",
    "state_code": "VIC",
    "latitude": -37.6895,
    "longitude": 145.1296
  },
  {
    "place_name": "Diamond Creek",
    "state_code": "VIC",
    "latitude": -37.6667,
    "longitude": 145.15
  },
  {
    "place_name": "Plenty",
    "state_code": "VIC",
    "latitude": -37.6667,
    "longitude": 145.1167
  },
  {
    "place_name": "Yarrambat",
    "state_code": "VIC",
    "latitude": -37.6375,
    "longitude": 145.1349
  },
  {
    "place_name": "Lower Plenty",
    "state_code": "VIC",
    "latitude": -37.7333,
    "longitude": 145.1167
  },
  {
    "place_name": "Montmorency",
    "state_code": "VIC",
    "latitude": -37.7167,
    "longitude": 145.1167
  },
  {
    "place_name": "Research",
    "state_code": "VIC",
    "latitude": -37.7,
    "longitude": 145.1833
  },
  {
    "place_name": "Eltham",
    "state_code": "VIC",
    "latitude": -37.7333,
    "longitude": 145.15
  },
  {
    "place_name": "Eltham North",
    "state_code": "VIC",
    "latitude": -37.7,
    "longitude": 145.15
  },
  {
    "place_name": "Wattle Glen",
    "state_code": "VIC",
    "latitude": -37.6667,
    "longitude": 145.1833
  },
  {
    "place_name": "Bend Of Islands",
    "state_code": "VIC",
    "latitude": -37.7008,
    "longitude": 145.2848
  },
  {
    "place_name": "Kangaroo Ground",
    "state_code": "VIC",
    "latitude": -37.6892,
    "longitude": 145.2317
  },
  {
    "place_name": "Watsons Creek",
    "state_code": "VIC",
    "latitude": -37.6833,
    "longitude": 145.2333
  },
  {
    "place_name": "Strathewen",
    "state_code": "VIC",
    "latitude": -37.55,
    "longitude": 145.2667
  },
  {
    "place_name": "Hurstbridge",
    "state_code": "VIC",
    "latitude": -37.6416,
    "longitude": 145.1941
  },
  {
    "place_name": "Arthurs Creek",
    "state_code": "VIC",
    "latitude": -37.5833,
    "longitude": 145.2
  },
  {
    "place_name": "Cottles Bridge",
    "state_code": "VIC",
    "latitude": -37.6333,
    "longitude": 145.2167
  },
  {
    "place_name": "Nutfield",
    "state_code": "VIC",
    "latitude": -37.6167,
    "longitude": 145.1833
  },
  {
    "place_name": "Kew",
    "state_code": "VIC",
    "latitude": -37.8064,
    "longitude": 145.0309
  },
  {
    "place_name": "Cotham",
    "state_code": "VIC",
    "latitude": -37.8064,
    "longitude": 145.0309
  },
  {
    "place_name": "Kew East",
    "state_code": "VIC",
    "latitude": -37.7976,
    "longitude": 145.0538
  },
  {
    "place_name": "Balwyn",
    "state_code": "VIC",
    "latitude": -37.8117,
    "longitude": 145.081
  },
  {
    "place_name": "Stradbroke Park",
    "state_code": "VIC",
    "latitude": -37.8117,
    "longitude": 145.081
  },
  {
    "place_name": "Deepdene",
    "state_code": "VIC",
    "latitude": -37.8167,
    "longitude": 145.0667
  },
  {
    "place_name": "Balwyn East",
    "state_code": "VIC",
    "latitude": -37.8117,
    "longitude": 145.081
  },
  {
    "place_name": "Balwyn North",
    "state_code": "VIC",
    "latitude": -37.7909,
    "longitude": 145.0939
  },
  {
    "place_name": "Greythorn",
    "state_code": "VIC",
    "latitude": -37.7909,
    "longitude": 145.0939
  },
  {
    "place_name": "Bulleen",
    "state_code": "VIC",
    "latitude": -37.7667,
    "longitude": 145.0833
  },
  {
    "place_name": "Templestowe",
    "state_code": "VIC",
    "latitude": -37.75,
    "longitude": 145.1167
  },
  {
    "place_name": "Templestowe Lower",
    "state_code": "VIC",
    "latitude": -37.7667,
    "longitude": 145.1167
  },
  {
    "place_name": "Doncaster",
    "state_code": "VIC",
    "latitude": -37.7883,
    "longitude": 145.1237
  },
  {
    "place_name": "Tunstall Square Po",
    "state_code": "VIC",
    "latitude": -37.7795,
    "longitude": 145.1638
  },
  {
    "place_name": "Doncaster East",
    "state_code": "VIC",
    "latitude": -37.7876,
    "longitude": 145.1489
  },
  {
    "place_name": "Doncaster Heights",
    "state_code": "VIC",
    "latitude": -37.7795,
    "longitude": 145.1638
  },
  {
    "place_name": "Nunawading Bc",
    "state_code": "VIC",
    "latitude": -37.7576,
    "longitude": 145.2408
  },
  {
    "place_name": "Donvale",
    "state_code": "VIC",
    "latitude": -37.7891,
    "longitude": 145.1749
  },
  {
    "place_name": "Warrandyte",
    "state_code": "VIC",
    "latitude": -37.75,
    "longitude": 145.2333
  },
  {
    "place_name": "North Warrandyte",
    "state_code": "VIC",
    "latitude": -37.7292,
    "longitude": 145.2157
  },
  {
    "place_name": "Park Orchards",
    "state_code": "VIC",
    "latitude": -37.7769,
    "longitude": 145.2146
  },
  {
    "place_name": "Wonga Park",
    "state_code": "VIC",
    "latitude": -37.7333,
    "longitude": 145.2667
  },
  {
    "place_name": "Chirnside Park",
    "state_code": "VIC",
    "latitude": -37.7386,
    "longitude": 145.3143
  },
  {
    "place_name": "Burnley",
    "state_code": "VIC",
    "latitude": -37.8286,
    "longitude": 145.0077
  },
  {
    "place_name": "Cremorne",
    "state_code": "VIC",
    "latitude": -37.8333,
    "longitude": 145
  },
  {
    "place_name": "Richmond",
    "state_code": "VIC",
    "latitude": -37.8182,
    "longitude": 145.0018
  },
  {
    "place_name": "Richmond East",
    "state_code": "VIC",
    "latitude": -37.8271,
    "longitude": 145.0064
  },
  {
    "place_name": "Burnley North",
    "state_code": "VIC",
    "latitude": -37.8271,
    "longitude": 145.0064
  },
  {
    "place_name": "Richmond South",
    "state_code": "VIC",
    "latitude": -37.8271,
    "longitude": 145.0064
  },
  {
    "place_name": "Richmond North",
    "state_code": "VIC",
    "latitude": -37.8271,
    "longitude": 145.0064
  },
  {
    "place_name": "Glenferrie South",
    "state_code": "VIC",
    "latitude": -37.8344,
    "longitude": 145.0397
  },
  {
    "place_name": "Auburn South",
    "state_code": "VIC",
    "latitude": -37.8333,
    "longitude": 145.05
  },
  {
    "place_name": "Hawthorn",
    "state_code": "VIC",
    "latitude": -37.8199,
    "longitude": 145.0358
  },
  {
    "place_name": "Hawthorn North",
    "state_code": "VIC",
    "latitude": -37.85,
    "longitude": 145.0333
  },
  {
    "place_name": "Hawthorn West",
    "state_code": "VIC",
    "latitude": -37.8344,
    "longitude": 145.0397
  },
  {
    "place_name": "Auburn",
    "state_code": "VIC",
    "latitude": -37.8167,
    "longitude": 145.05
  },
  {
    "place_name": "Hawthorn East",
    "state_code": "VIC",
    "latitude": -37.8248,
    "longitude": 145.0464
  },
  {
    "place_name": "Camberwell North",
    "state_code": "VIC",
    "latitude": -37.8248,
    "longitude": 145.0705
  },
  {
    "place_name": "Camberwell",
    "state_code": "VIC",
    "latitude": -37.8421,
    "longitude": 145.0694
  },
  {
    "place_name": "Camberwell West",
    "state_code": "VIC",
    "latitude": -37.8248,
    "longitude": 145.0705
  },
  {
    "place_name": "Camberwell South",
    "state_code": "VIC",
    "latitude": -37.8248,
    "longitude": 145.0705
  },
  {
    "place_name": "Hartwell",
    "state_code": "VIC",
    "latitude": -37.8421,
    "longitude": 145.0694
  },
  {
    "place_name": "Middle Camberwell",
    "state_code": "VIC",
    "latitude": -37.8248,
    "longitude": 145.0705
  },
  {
    "place_name": "Burwood",
    "state_code": "VIC",
    "latitude": -37.8505,
    "longitude": 145.0949
  },
  {
    "place_name": "Surrey Hills South",
    "state_code": "VIC",
    "latitude": -37.8498,
    "longitude": 145.119
  },
  {
    "place_name": "Bennettswood",
    "state_code": "VIC",
    "latitude": -37.8495,
    "longitude": 145.1114
  },
  {
    "place_name": "Canterbury",
    "state_code": "VIC",
    "latitude": -37.8247,
    "longitude": 145.0848
  },
  {
    "place_name": "Camberwell East",
    "state_code": "VIC",
    "latitude": -37.8248,
    "longitude": 145.0705
  },
  {
    "place_name": "Surrey Hills",
    "state_code": "VIC",
    "latitude": -37.8252,
    "longitude": 145.1004
  },
  {
    "place_name": "Surrey Hills North",
    "state_code": "VIC",
    "latitude": -37.8128,
    "longitude": 145.1043
  },
  {
    "place_name": "Mont Albert",
    "state_code": "VIC",
    "latitude": -37.8167,
    "longitude": 145.1
  },
  {
    "place_name": "Box Hill South",
    "state_code": "VIC",
    "latitude": -37.8324,
    "longitude": 145.121
  },
  {
    "place_name": "Box Hill Central",
    "state_code": "VIC",
    "latitude": -37.8256,
    "longitude": 145.1232
  },
  {
    "place_name": "Box Hill",
    "state_code": "VIC",
    "latitude": -37.8189,
    "longitude": 145.1254
  },
  {
    "place_name": "Wattle Park",
    "state_code": "VIC",
    "latitude": -37.829,
    "longitude": 145.1248
  },
  {
    "place_name": "Houston",
    "state_code": "VIC",
    "latitude": -37.829,
    "longitude": 145.1248
  },
  {
    "place_name": "Box Hill North",
    "state_code": "VIC",
    "latitude": -37.8027,
    "longitude": 145.1266
  },
  {
    "place_name": "Kerrimuir",
    "state_code": "VIC",
    "latitude": -37.8048,
    "longitude": 145.1229
  },
  {
    "place_name": "Mont Albert North",
    "state_code": "VIC",
    "latitude": -37.8004,
    "longitude": 145.1083
  },
  {
    "place_name": "Blackburn North",
    "state_code": "VIC",
    "latitude": -37.8093,
    "longitude": 145.1518
  },
  {
    "place_name": "Blackburn South",
    "state_code": "VIC",
    "latitude": -37.8398,
    "longitude": 145.1555
  },
  {
    "place_name": "Blackburn",
    "state_code": "VIC",
    "latitude": -37.819,
    "longitude": 145.1533
  },
  {
    "place_name": "Laburnum",
    "state_code": "VIC",
    "latitude": -37.8232,
    "longitude": 145.1511
  },
  {
    "place_name": "Forest Hill",
    "state_code": "VIC",
    "latitude": -37.8333,
    "longitude": 145.1833
  },
  {
    "place_name": "Brentford Square",
    "state_code": "VIC",
    "latitude": -37.8275,
    "longitude": 145.1739
  },
  {
    "place_name": "Nunawading",
    "state_code": "VIC",
    "latitude": -37.8204,
    "longitude": 145.1731
  },
  {
    "place_name": "Mitcham North",
    "state_code": "VIC",
    "latitude": -37.8182,
    "longitude": 145.199
  },
  {
    "place_name": "Mitcham",
    "state_code": "VIC",
    "latitude": -37.8167,
    "longitude": 145.2
  },
  {
    "place_name": "Rangeview",
    "state_code": "VIC",
    "latitude": -37.8186,
    "longitude": 145.1987
  },
  {
    "place_name": "Vermont",
    "state_code": "VIC",
    "latitude": -37.8362,
    "longitude": 145.1943
  },
  {
    "place_name": "Vermont South",
    "state_code": "VIC",
    "latitude": -37.8575,
    "longitude": 145.1827
  },
  {
    "place_name": "Warrandyte South",
    "state_code": "VIC",
    "latitude": -37.7667,
    "longitude": 145.25
  },
  {
    "place_name": "Heathwood",
    "state_code": "VIC",
    "latitude": -37.7944,
    "longitude": 145.2389
  },
  {
    "place_name": "Warranwood",
    "state_code": "VIC",
    "latitude": -37.7756,
    "longitude": 145.2473
  },
  {
    "place_name": "Ringwood North",
    "state_code": "VIC",
    "latitude": -37.8,
    "longitude": 145.2333
  },
  {
    "place_name": "Ringwood",
    "state_code": "VIC",
    "latitude": -37.8167,
    "longitude": 145.2333
  },
  {
    "place_name": "Bedford Road",
    "state_code": "VIC",
    "latitude": -37.8213,
    "longitude": 145.2489
  },
  {
    "place_name": "Ringwood East",
    "state_code": "VIC",
    "latitude": -37.8167,
    "longitude": 145.25
  },
  {
    "place_name": "Heathmont",
    "state_code": "VIC",
    "latitude": -37.8333,
    "longitude": 145.25
  },
  {
    "place_name": "Croydon North",
    "state_code": "VIC",
    "latitude": -37.7833,
    "longitude": 145.3
  },
  {
    "place_name": "Croydon South",
    "state_code": "VIC",
    "latitude": -37.8123,
    "longitude": 145.2681
  },
  {
    "place_name": "Croydon Hills",
    "state_code": "VIC",
    "latitude": -37.7765,
    "longitude": 145.2636
  },
  {
    "place_name": "Croydon",
    "state_code": "VIC",
    "latitude": -37.8,
    "longitude": 145.2833
  },
  {
    "place_name": "Kilsyth",
    "state_code": "VIC",
    "latitude": -37.8,
    "longitude": 145.3167
  },
  {
    "place_name": "Kilsyth South",
    "state_code": "VIC",
    "latitude": -37.8203,
    "longitude": 145.316
  },
  {
    "place_name": "Mooroolbark",
    "state_code": "VIC",
    "latitude": -37.7833,
    "longitude": 145.3
  },
  {
    "place_name": "Hoddles Creek",
    "state_code": "VIC",
    "latitude": -37.8333,
    "longitude": 145.5833
  },
  {
    "place_name": "Beenak",
    "state_code": "VIC",
    "latitude": -37.9,
    "longitude": 145.6333
  },
  {
    "place_name": "Don Valley",
    "state_code": "VIC",
    "latitude": -37.7364,
    "longitude": 145.5923
  },
  {
    "place_name": "Seville",
    "state_code": "VIC",
    "latitude": -37.7667,
    "longitude": 145.4667
  },
  {
    "place_name": "Woori Yallock",
    "state_code": "VIC",
    "latitude": -37.7806,
    "longitude": 145.5382
  },
  {
    "place_name": "Yellingbo",
    "state_code": "VIC",
    "latitude": -37.846,
    "longitude": 145.5291
  },
  {
    "place_name": "Wandin North",
    "state_code": "VIC",
    "latitude": -37.7833,
    "longitude": 145.4333
  },
  {
    "place_name": "Launching Place",
    "state_code": "VIC",
    "latitude": -37.7806,
    "longitude": 145.5683
  },
  {
    "place_name": "Seville East",
    "state_code": "VIC",
    "latitude": -37.775,
    "longitude": 145.4973
  },
  {
    "place_name": "Wandin East",
    "state_code": "VIC",
    "latitude": -37.8151,
    "longitude": 145.458
  },
  {
    "place_name": "Lilydale",
    "state_code": "VIC",
    "latitude": -37.75,
    "longitude": 145.35
  },
  {
    "place_name": "South Yarra",
    "state_code": "VIC",
    "latitude": -37.8333,
    "longitude": 144.9833
  },
  {
    "place_name": "Toorak",
    "state_code": "VIC",
    "latitude": -37.8416,
    "longitude": 145.0144
  },
  {
    "place_name": "Hawksburn",
    "state_code": "VIC",
    "latitude": -37.8416,
    "longitude": 145.0177
  },
  {
    "place_name": "Armadale",
    "state_code": "VIC",
    "latitude": -37.8554,
    "longitude": 145.0205
  },
  {
    "place_name": "Armadale North",
    "state_code": "VIC",
    "latitude": -37.85,
    "longitude": 145.0333
  },
  {
    "place_name": "Kooyong",
    "state_code": "VIC",
    "latitude": -37.8399,
    "longitude": 145.0352
  },
  {
    "place_name": "Malvern",
    "state_code": "VIC",
    "latitude": -37.8626,
    "longitude": 145.0281
  },
  {
    "place_name": "Malvern North",
    "state_code": "VIC",
    "latitude": -37.8512,
    "longitude": 145.0317
  },
  {
    "place_name": "Malvern East",
    "state_code": "VIC",
    "latitude": -37.874,
    "longitude": 145.0425
  },
  {
    "place_name": "Darling",
    "state_code": "VIC",
    "latitude": -37.8775,
    "longitude": 145.0624
  },
  {
    "place_name": "Caulfield East",
    "state_code": "VIC",
    "latitude": -37.8833,
    "longitude": 145.05
  },
  {
    "place_name": "Central Park",
    "state_code": "VIC",
    "latitude": -37.8775,
    "longitude": 145.0624
  },
  {
    "place_name": "Darling South",
    "state_code": "VIC",
    "latitude": -37.874,
    "longitude": 145.0425
  },
  {
    "place_name": "Wattletree Road Po",
    "state_code": "VIC",
    "latitude": -37.874,
    "longitude": 145.0425
  },
  {
    "place_name": "Glen Iris",
    "state_code": "VIC",
    "latitude": -37.8667,
    "longitude": 145.0667
  },
  {
    "place_name": "Tooronga",
    "state_code": "VIC",
    "latitude": -37.8599,
    "longitude": 145.0549
  },
  {
    "place_name": "Ashwood",
    "state_code": "VIC",
    "latitude": -37.8666,
    "longitude": 145.1055
  },
  {
    "place_name": "Ashburton",
    "state_code": "VIC",
    "latitude": -37.8626,
    "longitude": 145.0794
  },
  {
    "place_name": "Jordanville",
    "state_code": "VIC",
    "latitude": -37.8833,
    "longitude": 145.1167
  },
  {
    "place_name": "Holmesglen",
    "state_code": "VIC",
    "latitude": -37.8821,
    "longitude": 145.1002
  },
  {
    "place_name": "Chadstone",
    "state_code": "VIC",
    "latitude": -37.8877,
    "longitude": 145.0952
  },
  {
    "place_name": "Chadstone Centre",
    "state_code": "VIC",
    "latitude": -37.8855,
    "longitude": 145.1059
  },
  {
    "place_name": "Syndal",
    "state_code": "VIC",
    "latitude": -37.8742,
    "longitude": 145.1479
  },
  {
    "place_name": "Pinewood",
    "state_code": "VIC",
    "latitude": -37.8756,
    "longitude": 145.1387
  },
  {
    "place_name": "Mount Waverley",
    "state_code": "VIC",
    "latitude": -37.8771,
    "longitude": 145.1294
  },
  {
    "place_name": "Wheelers Hill",
    "state_code": "VIC",
    "latitude": -37.9,
    "longitude": 145.1833
  },
  {
    "place_name": "Brandon Park",
    "state_code": "VIC",
    "latitude": -37.8891,
    "longitude": 145.174
  },
  {
    "place_name": "Glen Waverley",
    "state_code": "VIC",
    "latitude": -37.8781,
    "longitude": 145.1648
  },
  {
    "place_name": "Burwood Heights",
    "state_code": "VIC",
    "latitude": -37.8535,
    "longitude": 145.1503
  },
  {
    "place_name": "Burwood East",
    "state_code": "VIC",
    "latitude": -37.85,
    "longitude": 145.15
  },
  {
    "place_name": "Wantirna South",
    "state_code": "VIC",
    "latitude": -37.8833,
    "longitude": 145.2167
  },
  {
    "place_name": "Knox City Centre",
    "state_code": "VIC",
    "latitude": -37.8656,
    "longitude": 145.2228
  },
  {
    "place_name": "Wantirna",
    "state_code": "VIC",
    "latitude": -37.85,
    "longitude": 145.2167
  },
  {
    "place_name": "Studfield",
    "state_code": "VIC",
    "latitude": -37.8656,
    "longitude": 145.2228
  },
  {
    "place_name": "Bayswater North",
    "state_code": "VIC",
    "latitude": -37.8261,
    "longitude": 145.2983
  },
  {
    "place_name": "Bayswater",
    "state_code": "VIC",
    "latitude": -37.85,
    "longitude": 145.2667
  },
  {
    "place_name": "The Basin",
    "state_code": "VIC",
    "latitude": -37.85,
    "longitude": 145.3167
  },
  {
    "place_name": "Boronia",
    "state_code": "VIC",
    "latitude": -37.8667,
    "longitude": 145.2833
  },
  {
    "place_name": "Lysterfield South",
    "state_code": "VIC",
    "latitude": -37.9581,
    "longitude": 145.2727
  },
  {
    "place_name": "Lysterfield",
    "state_code": "VIC",
    "latitude": -37.9333,
    "longitude": 145.3
  },
  {
    "place_name": "Mountain Gate",
    "state_code": "VIC",
    "latitude": -37.9136,
    "longitude": 145.2823
  },
  {
    "place_name": "Upper Ferntree Gully",
    "state_code": "VIC",
    "latitude": -37.8942,
    "longitude": 145.3124
  },
  {
    "place_name": "Ferntree Gully",
    "state_code": "VIC",
    "latitude": -37.8846,
    "longitude": 145.2954
  },
  {
    "place_name": "Upwey",
    "state_code": "VIC",
    "latitude": -37.9,
    "longitude": 145.3333
  },
  {
    "place_name": "Menzies Creek",
    "state_code": "VIC",
    "latitude": -37.9167,
    "longitude": 145.4
  },
  {
    "place_name": "Selby",
    "state_code": "VIC",
    "latitude": -37.9167,
    "longitude": 145.3833
  },
  {
    "place_name": "Tecoma",
    "state_code": "VIC",
    "latitude": -37.903,
    "longitude": 145.3447
  },
  {
    "place_name": "Belgrave South",
    "state_code": "VIC",
    "latitude": -37.9333,
    "longitude": 145.3333
  },
  {
    "place_name": "Belgrave Heights",
    "state_code": "VIC",
    "latitude": -37.9167,
    "longitude": 145.35
  },
  {
    "place_name": "Belgrave",
    "state_code": "VIC",
    "latitude": -37.9,
    "longitude": 145.35
  },
  {
    "place_name": "Caulfield North",
    "state_code": "VIC",
    "latitude": -37.8739,
    "longitude": 145.0249
  },
  {
    "place_name": "Caulfield Junction",
    "state_code": "VIC",
    "latitude": -37.872,
    "longitude": 145.0216
  },
  {
    "place_name": "Caulfield South",
    "state_code": "VIC",
    "latitude": -37.8956,
    "longitude": 145.026
  },
  {
    "place_name": "Hopetoun Gardens",
    "state_code": "VIC",
    "latitude": -37.8914,
    "longitude": 145.0254
  },
  {
    "place_name": "Caulfield",
    "state_code": "VIC",
    "latitude": -37.8825,
    "longitude": 145.0229
  },
  {
    "place_name": "Glen Huntly",
    "state_code": "VIC",
    "latitude": -37.8833,
    "longitude": 145.05
  },
  {
    "place_name": "Carnegie",
    "state_code": "VIC",
    "latitude": -37.8833,
    "longitude": 145.0667
  },
  {
    "place_name": "Booran Road Po",
    "state_code": "VIC",
    "latitude": -37.8895,
    "longitude": 145.0581
  },
  {
    "place_name": "Murrumbeena",
    "state_code": "VIC",
    "latitude": -37.8902,
    "longitude": 145.0711
  },
  {
    "place_name": "Dandenong South",
    "state_code": "VIC",
    "latitude": -37.9833,
    "longitude": 145.2
  },
  {
    "place_name": "Coatesville",
    "state_code": "VIC",
    "latitude": -37.9221,
    "longitude": 145.0667
  },
  {
    "place_name": "Bentleigh East",
    "state_code": "VIC",
    "latitude": -37.9193,
    "longitude": 145.053
  },
  {
    "place_name": "Oakleigh East",
    "state_code": "VIC",
    "latitude": -37.9,
    "longitude": 145.1167
  },
  {
    "place_name": "Oakleigh",
    "state_code": "VIC",
    "latitude": -37.8981,
    "longitude": 145.0884
  },
  {
    "place_name": "Huntingdale",
    "state_code": "VIC",
    "latitude": -37.9077,
    "longitude": 145.1085
  },
  {
    "place_name": "Hughesdale",
    "state_code": "VIC",
    "latitude": -37.9,
    "longitude": 145.0833
  },
  {
    "place_name": "Oakleigh South",
    "state_code": "VIC",
    "latitude": -37.9,
    "longitude": 145.1
  },
  {
    "place_name": "Notting Hill",
    "state_code": "VIC",
    "latitude": -37.905,
    "longitude": 145.1427
  },
  {
    "place_name": "Clayton",
    "state_code": "VIC",
    "latitude": -37.9173,
    "longitude": 145.1304
  },
  {
    "place_name": "Clarinda",
    "state_code": "VIC",
    "latitude": -37.9333,
    "longitude": 145.1167
  },
  {
    "place_name": "Clayton South",
    "state_code": "VIC",
    "latitude": -37.9333,
    "longitude": 145.1167
  },
  {
    "place_name": "Waverley Gardens",
    "state_code": "VIC",
    "latitude": -37.9167,
    "longitude": 145.2
  },
  {
    "place_name": "Mulgrave",
    "state_code": "VIC",
    "latitude": -37.9167,
    "longitude": 145.2
  },
  {
    "place_name": "Sandown Village",
    "state_code": "VIC",
    "latitude": -37.9457,
    "longitude": 145.1581
  },
  {
    "place_name": "Springvale",
    "state_code": "VIC",
    "latitude": -37.9485,
    "longitude": 145.1527
  },
  {
    "place_name": "Springvale South",
    "state_code": "VIC",
    "latitude": -37.9667,
    "longitude": 145.15
  },
  {
    "place_name": "Dingley Village",
    "state_code": "VIC",
    "latitude": -37.9827,
    "longitude": 145.1342
  },
  {
    "place_name": "Keysborough",
    "state_code": "VIC",
    "latitude": -37.9912,
    "longitude": 145.1739
  },
  {
    "place_name": "Noble Park",
    "state_code": "VIC",
    "latitude": -37.9667,
    "longitude": 145.1667
  },
  {
    "place_name": "Noble Park North",
    "state_code": "VIC",
    "latitude": -37.9498,
    "longitude": 145.1926
  },
  {
    "place_name": "Dandenong East",
    "state_code": "VIC",
    "latitude": -37.9833,
    "longitude": 145.2
  },
  {
    "place_name": "Dunearn",
    "state_code": "VIC",
    "latitude": -37.9833,
    "longitude": 145.2
  },
  {
    "place_name": "Dandenong South",
    "state_code": "VIC",
    "latitude": -37.9833,
    "longitude": 145.2
  },
  {
    "place_name": "Dandenong North",
    "state_code": "VIC",
    "latitude": -37.9665,
    "longitude": 145.2081
  },
  {
    "place_name": "Dandenong",
    "state_code": "VIC",
    "latitude": -37.9833,
    "longitude": 145.2
  },
  {
    "place_name": "Bangholme",
    "state_code": "VIC",
    "latitude": -38.0384,
    "longitude": 145.1869
  },
  {
    "place_name": "Scoresby Bc",
    "state_code": "VIC",
    "latitude": -37.9636,
    "longitude": 145.1943
  },
  {
    "place_name": "Doveton",
    "state_code": "VIC",
    "latitude": -37.9935,
    "longitude": 145.2389
  },
  {
    "place_name": "Eumemmerring",
    "state_code": "VIC",
    "latitude": -37.9978,
    "longitude": 145.2482
  },
  {
    "place_name": "Rowville",
    "state_code": "VIC",
    "latitude": -37.9333,
    "longitude": 145.2333
  },
  {
    "place_name": "Scoresby",
    "state_code": "VIC",
    "latitude": -37.9,
    "longitude": 145.2333
  },
  {
    "place_name": "Knoxfield",
    "state_code": "VIC",
    "latitude": -37.8898,
    "longitude": 145.2496
  },
  {
    "place_name": "Prahran",
    "state_code": "VIC",
    "latitude": -37.8511,
    "longitude": 144.9932
  },
  {
    "place_name": "Windsor",
    "state_code": "VIC",
    "latitude": -37.8548,
    "longitude": 144.9927
  },
  {
    "place_name": "Prahran East",
    "state_code": "VIC",
    "latitude": -37.853,
    "longitude": 144.9929
  },
  {
    "place_name": "St Kilda West",
    "state_code": "VIC",
    "latitude": -37.8599,
    "longitude": 144.9711
  },
  {
    "place_name": "St Kilda South",
    "state_code": "VIC",
    "latitude": -37.8633,
    "longitude": 144.9802
  },
  {
    "place_name": "St Kilda",
    "state_code": "VIC",
    "latitude": -37.8633,
    "longitude": 144.9802
  },
  {
    "place_name": "St Kilda East",
    "state_code": "VIC",
    "latitude": -37.8659,
    "longitude": 145.0002
  },
  {
    "place_name": "Balaclava",
    "state_code": "VIC",
    "latitude": -37.8692,
    "longitude": 144.9977
  },
  {
    "place_name": "Elwood",
    "state_code": "VIC",
    "latitude": -37.8821,
    "longitude": 144.9821
  },
  {
    "place_name": "Brighton Road",
    "state_code": "VIC",
    "latitude": -37.8809,
    "longitude": 144.9855
  },
  {
    "place_name": "Elsternwick",
    "state_code": "VIC",
    "latitude": -37.8864,
    "longitude": 145.0025
  },
  {
    "place_name": "Gardenvale",
    "state_code": "VIC",
    "latitude": -37.8979,
    "longitude": 145.0074
  },
  {
    "place_name": "Ripponlea",
    "state_code": "VIC",
    "latitude": -37.8833,
    "longitude": 145
  },
  {
    "place_name": "Dendy",
    "state_code": "VIC",
    "latitude": -37.895,
    "longitude": 145.0191
  },
  {
    "place_name": "Brighton",
    "state_code": "VIC",
    "latitude": -37.9056,
    "longitude": 145.0028
  },
  {
    "place_name": "Brighton North",
    "state_code": "VIC",
    "latitude": -37.9069,
    "longitude": 145.0053
  },
  {
    "place_name": "Were Street Po",
    "state_code": "VIC",
    "latitude": -37.9057,
    "longitude": 145.0067
  },
  {
    "place_name": "North Road",
    "state_code": "VIC",
    "latitude": -37.9667,
    "longitude": 145.0167
  },
  {
    "place_name": "Brighton East",
    "state_code": "VIC",
    "latitude": -37.9023,
    "longitude": 145.0173
  },
  {
    "place_name": "Hampton",
    "state_code": "VIC",
    "latitude": -37.9372,
    "longitude": 145.0046
  },
  {
    "place_name": "Hampton East",
    "state_code": "VIC",
    "latitude": -37.937,
    "longitude": 145.0286
  },
  {
    "place_name": "Hampton North",
    "state_code": "VIC",
    "latitude": -37.9374,
    "longitude": 145.0151
  },
  {
    "place_name": "Moorabbin",
    "state_code": "VIC",
    "latitude": -37.9367,
    "longitude": 145.0342
  },
  {
    "place_name": "Moorabbin East",
    "state_code": "VIC",
    "latitude": -37.9367,
    "longitude": 145.0342
  },
  {
    "place_name": "Wishart",
    "state_code": "VIC",
    "latitude": -37.9415,
    "longitude": 145.0578
  },
  {
    "place_name": "Highett",
    "state_code": "VIC",
    "latitude": -37.95,
    "longitude": 145.05
  },
  {
    "place_name": "Sandringham",
    "state_code": "VIC",
    "latitude": -37.95,
    "longitude": 145
  },
  {
    "place_name": "Cheltenham",
    "state_code": "VIC",
    "latitude": -37.9694,
    "longitude": 145.0481
  },
  {
    "place_name": "Cheltenham East",
    "state_code": "VIC",
    "latitude": -37.9634,
    "longitude": 145.0615
  },
  {
    "place_name": "Southland Centre",
    "state_code": "VIC",
    "latitude": -37.9634,
    "longitude": 145.0615
  },
  {
    "place_name": "Beaumaris",
    "state_code": "VIC",
    "latitude": -37.9822,
    "longitude": 145.0389
  },
  {
    "place_name": "Black Rock North",
    "state_code": "VIC",
    "latitude": -37.9667,
    "longitude": 145.0167
  },
  {
    "place_name": "Black Rock",
    "state_code": "VIC",
    "latitude": -37.9736,
    "longitude": 145.0164
  },
  {
    "place_name": "Cromer",
    "state_code": "VIC",
    "latitude": -37.9773,
    "longitude": 145.0323
  },
  {
    "place_name": "Mentone",
    "state_code": "VIC",
    "latitude": -37.9833,
    "longitude": 145.0667
  },
  {
    "place_name": "Mentone East",
    "state_code": "VIC",
    "latitude": -37.9833,
    "longitude": 145.0667
  },
  {
    "place_name": "Moorabbin Airport",
    "state_code": "VIC",
    "latitude": -37.9799,
    "longitude": 145.0815
  },
  {
    "place_name": "Braeside",
    "state_code": "VIC",
    "latitude": -37.9995,
    "longitude": 145.1163
  },
  {
    "place_name": "Mordialloc",
    "state_code": "VIC",
    "latitude": -38,
    "longitude": 145.0833
  },
  {
    "place_name": "Waterways",
    "state_code": "VIC",
    "latitude": -38.0148,
    "longitude": 145.1305
  },
  {
    "place_name": "Aspendale Gardens",
    "state_code": "VIC",
    "latitude": -38.0228,
    "longitude": 145.118
  },
  {
    "place_name": "Parkdale",
    "state_code": "VIC",
    "latitude": -37.9942,
    "longitude": 145.0734
  },
  {
    "place_name": "Aspendale",
    "state_code": "VIC",
    "latitude": -38.0291,
    "longitude": 145.1027
  },
  {
    "place_name": "Chelsea Heights",
    "state_code": "VIC",
    "latitude": -38.0333,
    "longitude": 145.1333
  },
  {
    "place_name": "Edithvale",
    "state_code": "VIC",
    "latitude": -38.0372,
    "longitude": 145.1097
  },
  {
    "place_name": "Bonbeach",
    "state_code": "VIC",
    "latitude": -38.0653,
    "longitude": 145.1228
  },
  {
    "place_name": "Chelsea",
    "state_code": "VIC",
    "latitude": -38.05,
    "longitude": 145.1167
  },
  {
    "place_name": "Carrum",
    "state_code": "VIC",
    "latitude": -38.0833,
    "longitude": 145.1333
  },
  {
    "place_name": "Patterson Lakes",
    "state_code": "VIC",
    "latitude": -38.0693,
    "longitude": 145.1433
  },
  {
    "place_name": "Belvedere Park",
    "state_code": "VIC",
    "latitude": -38.1049,
    "longitude": 145.1382
  },
  {
    "place_name": "Seaford",
    "state_code": "VIC",
    "latitude": -38.1,
    "longitude": 145.1333
  },
  {
    "place_name": "Karingal Centre",
    "state_code": "VIC",
    "latitude": -38.1278,
    "longitude": 145.15
  },
  {
    "place_name": "Frankston South",
    "state_code": "VIC",
    "latitude": -38.166,
    "longitude": 145.1364
  },
  {
    "place_name": "Frankston East",
    "state_code": "VIC",
    "latitude": -38.1333,
    "longitude": 145.1333
  },
  {
    "place_name": "Frankston",
    "state_code": "VIC",
    "latitude": -38.1446,
    "longitude": 145.1229
  },
  {
    "place_name": "Frankston Heights",
    "state_code": "VIC",
    "latitude": -38.1278,
    "longitude": 145.15
  },
  {
    "place_name": "Karingal",
    "state_code": "VIC",
    "latitude": -38.1604,
    "longitude": 145.1399
  },
  {
    "place_name": "Frankston North",
    "state_code": "VIC",
    "latitude": -38.1235,
    "longitude": 145.1484
  },
  {
    "place_name": "Pines Forest",
    "state_code": "VIC",
    "latitude": -38.1213,
    "longitude": 145.1552
  },
  {
    "place_name": "Carrum Downs",
    "state_code": "VIC",
    "latitude": -38.0997,
    "longitude": 145.1725
  },
  {
    "place_name": "Heatherton",
    "state_code": "VIC",
    "latitude": -37.956,
    "longitude": 145.0984
  },
  {
    "place_name": "Ormond",
    "state_code": "VIC",
    "latitude": -37.9039,
    "longitude": 145.0415
  },
  {
    "place_name": "Patterson",
    "state_code": "VIC",
    "latitude": -38.0693,
    "longitude": 145.1433
  },
  {
    "place_name": "Bentleigh",
    "state_code": "VIC",
    "latitude": -37.9181,
    "longitude": 145.0354
  },
  {
    "place_name": "Mckinnon",
    "state_code": "VIC",
    "latitude": -37.9167,
    "longitude": 145.05
  },
  {
    "place_name": "South Melbourne Dc",
    "state_code": "VIC",
    "latitude": -37.8335,
    "longitude": 144.9571
  },
  {
    "place_name": "South Melbourne",
    "state_code": "VIC",
    "latitude": -37.8333,
    "longitude": 144.9667
  },
  {
    "place_name": "Albert Park",
    "state_code": "VIC",
    "latitude": -37.8333,
    "longitude": 145
  },
  {
    "place_name": "Middle Park",
    "state_code": "VIC",
    "latitude": -37.8512,
    "longitude": 144.962
  },
  {
    "place_name": "Garden City",
    "state_code": "VIC",
    "latitude": -37.836,
    "longitude": 144.9183
  },
  {
    "place_name": "Port Melbourne",
    "state_code": "VIC",
    "latitude": -37.8396,
    "longitude": 144.9423
  },
  {
    "place_name": "Little River",
    "state_code": "VIC",
    "latitude": -37.9667,
    "longitude": 144.5
  },
  {
    "place_name": "Avalon",
    "state_code": "VIC",
    "latitude": -38.0239,
    "longitude": 144.4062
  },
  {
    "place_name": "Lara",
    "state_code": "VIC",
    "latitude": -38.0239,
    "longitude": 144.4062
  },
  {
    "place_name": "Point Wilson",
    "state_code": "VIC",
    "latitude": -38.0239,
    "longitude": 144.4062
  },
  {
    "place_name": "Anakie",
    "state_code": "VIC",
    "latitude": -37.9167,
    "longitude": 144.25
  },
  {
    "place_name": "Moorabool",
    "state_code": "VIC",
    "latitude": -38.0833,
    "longitude": 144.3
  },
  {
    "place_name": "Lovely Banks",
    "state_code": "VIC",
    "latitude": -38.0667,
    "longitude": 144.3333
  },
  {
    "place_name": "Batesford",
    "state_code": "VIC",
    "latitude": -38.1,
    "longitude": 144.2833
  },
  {
    "place_name": "Norlane",
    "state_code": "VIC",
    "latitude": -38.1014,
    "longitude": 144.3542
  },
  {
    "place_name": "North Shore",
    "state_code": "VIC",
    "latitude": -38.1,
    "longitude": 144.3667
  },
  {
    "place_name": "Corio",
    "state_code": "VIC",
    "latitude": -38.0833,
    "longitude": 144.3833
  },
  {
    "place_name": "Geelong North",
    "state_code": "VIC",
    "latitude": -38.1,
    "longitude": 144.3667
  },
  {
    "place_name": "Bell Post Hill",
    "state_code": "VIC",
    "latitude": -38.0956,
    "longitude": 144.3197
  },
  {
    "place_name": "North Geelong",
    "state_code": "VIC",
    "latitude": -38.1095,
    "longitude": 144.3513
  },
  {
    "place_name": "Rippleside",
    "state_code": "VIC",
    "latitude": -38.1257,
    "longitude": 144.355
  },
  {
    "place_name": "Hamlyn Heights",
    "state_code": "VIC",
    "latitude": -38.1211,
    "longitude": 144.328
  },
  {
    "place_name": "Drumcondra",
    "state_code": "VIC",
    "latitude": -38.1302,
    "longitude": 144.3538
  },
  {
    "place_name": "Bell Park",
    "state_code": "VIC",
    "latitude": -38.1079,
    "longitude": 144.3384
  },
  {
    "place_name": "Highton",
    "state_code": "VIC",
    "latitude": -38.1706,
    "longitude": 144.3114
  },
  {
    "place_name": "Belmont",
    "state_code": "VIC",
    "latitude": -38.1748,
    "longitude": 144.3428
  },
  {
    "place_name": "Freshwater Creek",
    "state_code": "VIC",
    "latitude": -38.2667,
    "longitude": 144.2833
  },
  {
    "place_name": "Grovedale East",
    "state_code": "VIC",
    "latitude": -38.2113,
    "longitude": 144.3244
  },
  {
    "place_name": "Mount Duneed",
    "state_code": "VIC",
    "latitude": -38.2409,
    "longitude": 144.3375
  },
  {
    "place_name": "Marshall",
    "state_code": "VIC",
    "latitude": -38.2,
    "longitude": 144.3667
  },
  {
    "place_name": "Wandana Heights",
    "state_code": "VIC",
    "latitude": -38.1758,
    "longitude": 144.3039
  },
  {
    "place_name": "Grovedale",
    "state_code": "VIC",
    "latitude": -38.2,
    "longitude": 144.35
  },
  {
    "place_name": "Waurn Ponds",
    "state_code": "VIC",
    "latitude": -38.2167,
    "longitude": 144.2833
  },
  {
    "place_name": "Deakin University",
    "state_code": "VIC",
    "latitude": -38.1974,
    "longitude": 144.3023
  },
  {
    "place_name": "Mount Duneed",
    "state_code": "VIC",
    "latitude": -38.2409,
    "longitude": 144.3375
  },
  {
    "place_name": "Freshwater Creek",
    "state_code": "VIC",
    "latitude": -38.2667,
    "longitude": 144.2833
  },
  {
    "place_name": "Charlemont",
    "state_code": "VIC",
    "latitude": -38.2187,
    "longitude": 144.3677
  },
  {
    "place_name": "Armstrong Creek",
    "state_code": "VIC",
    "latitude": -38.2312,
    "longitude": 144.3737
  },
  {
    "place_name": "Fyansford",
    "state_code": "VIC",
    "latitude": -38.1333,
    "longitude": 144.3167
  },
  {
    "place_name": "Stonehaven",
    "state_code": "VIC",
    "latitude": -38.1236,
    "longitude": 144.2291
  },
  {
    "place_name": "Geelong West",
    "state_code": "VIC",
    "latitude": -38.1389,
    "longitude": 144.3484
  },
  {
    "place_name": "Manifold Heights",
    "state_code": "VIC",
    "latitude": -38.1376,
    "longitude": 144.3337
  },
  {
    "place_name": "Herne Hill",
    "state_code": "VIC",
    "latitude": -38.1343,
    "longitude": 144.3241
  },
  {
    "place_name": "Murgheboluc",
    "state_code": "VIC",
    "latitude": -38.0833,
    "longitude": 144.1333
  },
  {
    "place_name": "Thomson",
    "state_code": "VIC",
    "latitude": -38.1698,
    "longitude": 144.3789
  },
  {
    "place_name": "St Albans Park",
    "state_code": "VIC",
    "latitude": -38.188,
    "longitude": 144.3921
  },
  {
    "place_name": "Newcomb",
    "state_code": "VIC",
    "latitude": -38.1662,
    "longitude": 144.3943
  },
  {
    "place_name": "East Geelong",
    "state_code": "VIC",
    "latitude": -38.1557,
    "longitude": 144.372
  },
  {
    "place_name": "Whittington",
    "state_code": "VIC",
    "latitude": -38.1808,
    "longitude": 144.3932
  },
  {
    "place_name": "Breakwater",
    "state_code": "VIC",
    "latitude": -38.1799,
    "longitude": 144.3676
  },
  {
    "place_name": "South Geelong",
    "state_code": "VIC",
    "latitude": -38.1619,
    "longitude": 144.3556
  },
  {
    "place_name": "Bareena",
    "state_code": "VIC",
    "latitude": -38.1505,
    "longitude": 144.3479
  },
  {
    "place_name": "Newtown",
    "state_code": "VIC",
    "latitude": -38.1539,
    "longitude": 144.3351
  },
  {
    "place_name": "Geelong",
    "state_code": "VIC",
    "latitude": -38.1471,
    "longitude": 144.3607
  },
  {
    "place_name": "Murgheboluc",
    "state_code": "VIC",
    "latitude": -38.0833,
    "longitude": 144.1333
  },
  {
    "place_name": "Fyansford",
    "state_code": "VIC",
    "latitude": -38.1333,
    "longitude": 144.3167
  },
  {
    "place_name": "Stonehaven",
    "state_code": "VIC",
    "latitude": -38.1236,
    "longitude": 144.2291
  },
  {
    "place_name": "Batesford",
    "state_code": "VIC",
    "latitude": -38.1,
    "longitude": 144.2833
  },
  {
    "place_name": "Gnarwarre",
    "state_code": "VIC",
    "latitude": -38.1667,
    "longitude": 144.15
  },
  {
    "place_name": "Moolap",
    "state_code": "VIC",
    "latitude": -38.1833,
    "longitude": 144.4333
  },
  {
    "place_name": "Bellarine",
    "state_code": "VIC",
    "latitude": -38.1333,
    "longitude": 144.6167
  },
  {
    "place_name": "Geelong Mc",
    "state_code": "VIC",
    "latitude": -38.2043,
    "longitude": 144.223
  },
  {
    "place_name": "Ceres",
    "state_code": "VIC",
    "latitude": -38.1667,
    "longitude": 144.2667
  },
  {
    "place_name": "Staughton Vale",
    "state_code": "VIC",
    "latitude": -37.85,
    "longitude": 144.2833
  },
  {
    "place_name": "Wongarra",
    "state_code": "VIC",
    "latitude": -38.7167,
    "longitude": 143.75
  },
  {
    "place_name": "Moorabool",
    "state_code": "VIC",
    "latitude": -38.0833,
    "longitude": 144.3
  },
  {
    "place_name": "Anakie",
    "state_code": "VIC",
    "latitude": -37.9167,
    "longitude": 144.25
  },
  {
    "place_name": "Barrabool",
    "state_code": "VIC",
    "latitude": -38.1667,
    "longitude": 144.2263
  },
  {
    "place_name": "Kennett River",
    "state_code": "VIC",
    "latitude": -38.6685,
    "longitude": 143.8584
  },
  {
    "place_name": "Wye River",
    "state_code": "VIC",
    "latitude": -38.6333,
    "longitude": 143.8833
  },
  {
    "place_name": "Wallington",
    "state_code": "VIC",
    "latitude": -38.2,
    "longitude": 144.4833
  },
  {
    "place_name": "Lovely Banks",
    "state_code": "VIC",
    "latitude": -38.0667,
    "longitude": 144.3333
  },
  {
    "place_name": "Mannerim",
    "state_code": "VIC",
    "latitude": -38.2167,
    "longitude": 144.5833
  },
  {
    "place_name": "Drysdale",
    "state_code": "VIC",
    "latitude": -38.1724,
    "longitude": 144.5699
  },
  {
    "place_name": "Marcus Hill",
    "state_code": "VIC",
    "latitude": -38.25,
    "longitude": 144.5667
  },
  {
    "place_name": "Clifton Springs",
    "state_code": "VIC",
    "latitude": -38.1567,
    "longitude": 144.5551
  },
  {
    "place_name": "Curlewis",
    "state_code": "VIC",
    "latitude": -38.1833,
    "longitude": 144.4833
  },
  {
    "place_name": "Wallington",
    "state_code": "VIC",
    "latitude": -38.2,
    "longitude": 144.4833
  },
  {
    "place_name": "St Leonards",
    "state_code": "VIC",
    "latitude": -38.1705,
    "longitude": 144.718
  },
  {
    "place_name": "Indented Head",
    "state_code": "VIC",
    "latitude": -38.1431,
    "longitude": 144.7134
  },
  {
    "place_name": "Bellarine",
    "state_code": "VIC",
    "latitude": -38.1333,
    "longitude": 144.6167
  },
  {
    "place_name": "Portarlington",
    "state_code": "VIC",
    "latitude": -38.1154,
    "longitude": 144.6556
  },
  {
    "place_name": "Leopold",
    "state_code": "VIC",
    "latitude": -38.19,
    "longitude": 144.4682
  },
  {
    "place_name": "Moolap",
    "state_code": "VIC",
    "latitude": -38.1833,
    "longitude": 144.4333
  },
  {
    "place_name": "Point Lonsdale",
    "state_code": "VIC",
    "latitude": -38.2817,
    "longitude": 144.6105
  },
  {
    "place_name": "Queenscliff",
    "state_code": "VIC",
    "latitude": -38.2679,
    "longitude": 144.6619
  },
  {
    "place_name": "Swan Island",
    "state_code": "VIC",
    "latitude": -35.4034,
    "longitude": 143.6912
  },
  {
    "place_name": "Swan Bay",
    "state_code": "VIC",
    "latitude": -38.2756,
    "longitude": 144.631
  },
  {
    "place_name": "Ocean Grove",
    "state_code": "VIC",
    "latitude": -38.2653,
    "longitude": 144.5147
  },
  {
    "place_name": "Connewarre",
    "state_code": "VIC",
    "latitude": -38.2667,
    "longitude": 144.4
  },
  {
    "place_name": "Breamlea",
    "state_code": "VIC",
    "latitude": -38.2597,
    "longitude": 144.4509
  },
  {
    "place_name": "Barwon Heads",
    "state_code": "VIC",
    "latitude": -38.2653,
    "longitude": 144.5147
  },
  {
    "place_name": "Bellbrae",
    "state_code": "VIC",
    "latitude": -38.3333,
    "longitude": 144.2667
  },
  {
    "place_name": "Torquay",
    "state_code": "VIC",
    "latitude": -38.3308,
    "longitude": 144.3264
  },
  {
    "place_name": "Bells Beach",
    "state_code": "VIC",
    "latitude": -38.3751,
    "longitude": 144.2564
  },
  {
    "place_name": "Jan Juc",
    "state_code": "VIC",
    "latitude": -38.3445,
    "longitude": 144.2952
  },
  {
    "place_name": "Anglesea",
    "state_code": "VIC",
    "latitude": -38.4073,
    "longitude": 144.1859
  },
  {
    "place_name": "Aireys Inlet",
    "state_code": "VIC",
    "latitude": -38.464,
    "longitude": 144.1039
  },
  {
    "place_name": "Eastern View",
    "state_code": "VIC",
    "latitude": -38.4595,
    "longitude": 144.0909
  },
  {
    "place_name": "Fairhaven",
    "state_code": "VIC",
    "latitude": -38.35,
    "longitude": 145.2833
  },
  {
    "place_name": "Big Hill",
    "state_code": "VIC",
    "latitude": -38.407,
    "longitude": 144.6936
  },
  {
    "place_name": "Moggs Creek",
    "state_code": "VIC",
    "latitude": -38.4595,
    "longitude": 144.0909
  },
  {
    "place_name": "Lorne",
    "state_code": "VIC",
    "latitude": -38.5404,
    "longitude": 143.9764
  },
  {
    "place_name": "Apollo Bay",
    "state_code": "VIC",
    "latitude": -38.7594,
    "longitude": 143.6722
  },
  {
    "place_name": "Cape Otway",
    "state_code": "VIC",
    "latitude": -38.85,
    "longitude": 143.5167
  },
  {
    "place_name": "Skenes Creek North",
    "state_code": "VIC",
    "latitude": -38.7803,
    "longitude": 143.6403
  },
  {
    "place_name": "Marengo",
    "state_code": "VIC",
    "latitude": -38.7783,
    "longitude": 143.6555
  },
  {
    "place_name": "Petticoat Creek",
    "state_code": "VIC",
    "latitude": -38.7803,
    "longitude": 143.6403
  },
  {
    "place_name": "Skenes Creek",
    "state_code": "VIC",
    "latitude": -38.7333,
    "longitude": 143.7167
  },
  {
    "place_name": "Grey River",
    "state_code": "VIC",
    "latitude": -38.6622,
    "longitude": 143.8466
  },
  {
    "place_name": "Wye River",
    "state_code": "VIC",
    "latitude": -38.6333,
    "longitude": 143.8833
  },
  {
    "place_name": "Wongarra",
    "state_code": "VIC",
    "latitude": -38.7167,
    "longitude": 143.75
  },
  {
    "place_name": "Separation Creek",
    "state_code": "VIC",
    "latitude": -38.6304,
    "longitude": 143.8945
  },
  {
    "place_name": "Sugarloaf",
    "state_code": "VIC",
    "latitude": -38.6622,
    "longitude": 143.8466
  },
  {
    "place_name": "Kennett River",
    "state_code": "VIC",
    "latitude": -38.6685,
    "longitude": 143.8584
  },
  {
    "place_name": "Deans Marsh",
    "state_code": "VIC",
    "latitude": -38.4,
    "longitude": 143.8667
  },
  {
    "place_name": "Boonah",
    "state_code": "VIC",
    "latitude": -38.4167,
    "longitude": 143.9333
  },
  {
    "place_name": "Pennyroyal",
    "state_code": "VIC",
    "latitude": -38.4167,
    "longitude": 143.85
  },
  {
    "place_name": "Benwerrin",
    "state_code": "VIC",
    "latitude": -38.4111,
    "longitude": 143.8833
  },
  {
    "place_name": "Mount Sabine",
    "state_code": "VIC",
    "latitude": -38.6333,
    "longitude": 143.7167
  },
  {
    "place_name": "Forrest",
    "state_code": "VIC",
    "latitude": -38.5167,
    "longitude": 143.7167
  },
  {
    "place_name": "Beech Forest",
    "state_code": "VIC",
    "latitude": -38.6366,
    "longitude": 143.5678
  },
  {
    "place_name": "Wattle Hill",
    "state_code": "VIC",
    "latitude": -38.7833,
    "longitude": 143.25
  },
  {
    "place_name": "Aire Valley",
    "state_code": "VIC",
    "latitude": -38.703,
    "longitude": 143.5728
  },
  {
    "place_name": "Wyelangta",
    "state_code": "VIC",
    "latitude": -38.6333,
    "longitude": 143.4667
  },
  {
    "place_name": "Ferguson",
    "state_code": "VIC",
    "latitude": -38.631,
    "longitude": 143.5258
  },
  {
    "place_name": "Gellibrand Lower",
    "state_code": "VIC",
    "latitude": -38.7167,
    "longitude": 143.25
  },
  {
    "place_name": "Yuulong",
    "state_code": "VIC",
    "latitude": -38.6722,
    "longitude": 143.4278
  },
  {
    "place_name": "Weeaproinah",
    "state_code": "VIC",
    "latitude": -38.6333,
    "longitude": 143.5
  },
  {
    "place_name": "Johanna",
    "state_code": "VIC",
    "latitude": -38.756,
    "longitude": 143.3893
  },
  {
    "place_name": "Lavers Hill",
    "state_code": "VIC",
    "latitude": -38.6667,
    "longitude": 143.4
  },
  {
    "place_name": "Hordern Vale",
    "state_code": "VIC",
    "latitude": -38.7782,
    "longitude": 143.5004
  },
  {
    "place_name": "Glenaire",
    "state_code": "VIC",
    "latitude": -38.7333,
    "longitude": 143.4278
  },
  {
    "place_name": "Chapple Vale",
    "state_code": "VIC",
    "latitude": -38.6333,
    "longitude": 143.3167
  },
  {
    "place_name": "Carlisle River",
    "state_code": "VIC",
    "latitude": -38.5667,
    "longitude": 143.3833
  },
  {
    "place_name": "Kennedys Creek",
    "state_code": "VIC",
    "latitude": -38.6,
    "longitude": 143.25
  },
  {
    "place_name": "Gellibrand",
    "state_code": "VIC",
    "latitude": -38.5167,
    "longitude": 143.5333
  },
  {
    "place_name": "Moriac",
    "state_code": "VIC",
    "latitude": -38.2409,
    "longitude": 144.1748
  },
  {
    "place_name": "Modewarre",
    "state_code": "VIC",
    "latitude": -38.25,
    "longitude": 144.1333
  },
  {
    "place_name": "Buckley",
    "state_code": "VIC",
    "latitude": -38.2333,
    "longitude": 144.1
  },
  {
    "place_name": "Mount Moriac",
    "state_code": "VIC",
    "latitude": -38.2167,
    "longitude": 144.1833
  },
  {
    "place_name": "Paraparap",
    "state_code": "VIC",
    "latitude": -38.2504,
    "longitude": 144.139
  },
  {
    "place_name": "Gherang",
    "state_code": "VIC",
    "latitude": -38.3113,
    "longitude": 144.1034
  },
  {
    "place_name": "Wensleydale",
    "state_code": "VIC",
    "latitude": -38.35,
    "longitude": 144.0333
  },
  {
    "place_name": "Winchelsea",
    "state_code": "VIC",
    "latitude": -38.2448,
    "longitude": 143.9832
  },
  {
    "place_name": "Bambra",
    "state_code": "VIC",
    "latitude": -38.3667,
    "longitude": 143.9333
  },
  {
    "place_name": "Ombersley",
    "state_code": "VIC",
    "latitude": -38.3154,
    "longitude": 144
  },
  {
    "place_name": "Winchelsea South",
    "state_code": "VIC",
    "latitude": -38.3154,
    "longitude": 144
  },
  {
    "place_name": "Wurdiboluc",
    "state_code": "VIC",
    "latitude": -38.3,
    "longitude": 144.05
  },
  {
    "place_name": "Birregurra",
    "state_code": "VIC",
    "latitude": -38.3368,
    "longitude": 143.7847
  },
  {
    "place_name": "Whoorel",
    "state_code": "VIC",
    "latitude": -38.3667,
    "longitude": 143.8167
  },
  {
    "place_name": "Murroon",
    "state_code": "VIC",
    "latitude": -38.4333,
    "longitude": 143.8167
  },
  {
    "place_name": "Gerangamete",
    "state_code": "VIC",
    "latitude": -38.45,
    "longitude": 143.7333
  },
  {
    "place_name": "Barwon Downs",
    "state_code": "VIC",
    "latitude": -38.4667,
    "longitude": 143.75
  },
  {
    "place_name": "Warncoort",
    "state_code": "VIC",
    "latitude": -38.3167,
    "longitude": 143.7167
  },
  {
    "place_name": "Barongarook",
    "state_code": "VIC",
    "latitude": -38.4167,
    "longitude": 143.6
  },
  {
    "place_name": "Swan Marsh",
    "state_code": "VIC",
    "latitude": -38.3667,
    "longitude": 143.3833
  },
  {
    "place_name": "Dreeite",
    "state_code": "VIC",
    "latitude": -38.1833,
    "longitude": 143.5167
  },
  {
    "place_name": "Barongarook West",
    "state_code": "VIC",
    "latitude": -38.364,
    "longitude": 143.5632
  },
  {
    "place_name": "Yeo",
    "state_code": "VIC",
    "latitude": -38.4167,
    "longitude": 143.7
  },
  {
    "place_name": "Dreeite South",
    "state_code": "VIC",
    "latitude": -38.364,
    "longitude": 143.5632
  },
  {
    "place_name": "Larpent",
    "state_code": "VIC",
    "latitude": -38.35,
    "longitude": 143.5
  },
  {
    "place_name": "Coragulac",
    "state_code": "VIC",
    "latitude": -38.2667,
    "longitude": 143.5333
  },
  {
    "place_name": "Irrewarra",
    "state_code": "VIC",
    "latitude": -38.3167,
    "longitude": 143.6333
  },
  {
    "place_name": "Pirron Yallock",
    "state_code": "VIC",
    "latitude": -38.35,
    "longitude": 143.4333
  },
  {
    "place_name": "Tanybryn",
    "state_code": "VIC",
    "latitude": -38.65,
    "longitude": 143.7167
  },
  {
    "place_name": "Pomborneit East",
    "state_code": "VIC",
    "latitude": -38.364,
    "longitude": 143.5632
  },
  {
    "place_name": "Yeodene",
    "state_code": "VIC",
    "latitude": -38.4167,
    "longitude": 143.7
  },
  {
    "place_name": "Corunnun",
    "state_code": "VIC",
    "latitude": -38.3019,
    "longitude": 143.5942
  },
  {
    "place_name": "Warrion",
    "state_code": "VIC",
    "latitude": -38.2333,
    "longitude": 143.5667
  },
  {
    "place_name": "Wool Wool",
    "state_code": "VIC",
    "latitude": -38.25,
    "longitude": 143.4167
  },
  {
    "place_name": "Ondit",
    "state_code": "VIC",
    "latitude": -38.25,
    "longitude": 143.6333
  },
  {
    "place_name": "Irrewillipe East",
    "state_code": "VIC",
    "latitude": -38.364,
    "longitude": 143.5632
  },
  {
    "place_name": "Gerangamete",
    "state_code": "VIC",
    "latitude": -38.45,
    "longitude": 143.7333
  },
  {
    "place_name": "Balintore",
    "state_code": "VIC",
    "latitude": -38.364,
    "longitude": 143.5632
  },
  {
    "place_name": "Nalangil",
    "state_code": "VIC",
    "latitude": -38.3,
    "longitude": 143.45
  },
  {
    "place_name": "Kawarren",
    "state_code": "VIC",
    "latitude": -38.4833,
    "longitude": 143.5833
  },
  {
    "place_name": "Irrewillipe",
    "state_code": "VIC",
    "latitude": -38.4,
    "longitude": 143.4167
  },
  {
    "place_name": "Barramunga",
    "state_code": "VIC",
    "latitude": -38.5833,
    "longitude": 143.6833
  },
  {
    "place_name": "Alvie",
    "state_code": "VIC",
    "latitude": -38.2333,
    "longitude": 143.5
  },
  {
    "place_name": "Colac West",
    "state_code": "VIC",
    "latitude": -38.3445,
    "longitude": 143.5841
  },
  {
    "place_name": "Colac East",
    "state_code": "VIC",
    "latitude": -38.3445,
    "longitude": 143.5841
  },
  {
    "place_name": "Colac",
    "state_code": "VIC",
    "latitude": -38.339,
    "longitude": 143.5849
  },
  {
    "place_name": "Elliminyt",
    "state_code": "VIC",
    "latitude": -38.35,
    "longitude": 143.5833
  },
  {
    "place_name": "Cundare North",
    "state_code": "VIC",
    "latitude": -38.1167,
    "longitude": 143.5667
  },
  {
    "place_name": "Cundare",
    "state_code": "VIC",
    "latitude": -38.1167,
    "longitude": 143.5667
  },
  {
    "place_name": "Weering",
    "state_code": "VIC",
    "latitude": -38.1,
    "longitude": 143.6333
  },
  {
    "place_name": "Beeac",
    "state_code": "VIC",
    "latitude": -38.1938,
    "longitude": 143.6413
  },
  {
    "place_name": "Eurack",
    "state_code": "VIC",
    "latitude": -38.15,
    "longitude": 143.7
  },
  {
    "place_name": "Cororooke",
    "state_code": "VIC",
    "latitude": -38.2833,
    "longitude": 143.5167
  },
  {
    "place_name": "Kariah",
    "state_code": "VIC",
    "latitude": -38.1833,
    "longitude": 143.2167
  },
  {
    "place_name": "Gnotuk",
    "state_code": "VIC",
    "latitude": -38.2167,
    "longitude": 143.1167
  },
  {
    "place_name": "Carpendeit",
    "state_code": "VIC",
    "latitude": -38.3833,
    "longitude": 143.2667
  },
  {
    "place_name": "Pomborneit North",
    "state_code": "VIC",
    "latitude": -38.2612,
    "longitude": 143.2241
  },
  {
    "place_name": "Bostocks Creek",
    "state_code": "VIC",
    "latitude": -38.3,
    "longitude": 143.1167
  },
  {
    "place_name": "Pomborneit",
    "state_code": "VIC",
    "latitude": -38.3,
    "longitude": 143.3
  },
  {
    "place_name": "Weerite",
    "state_code": "VIC",
    "latitude": -38.25,
    "longitude": 143.25
  },
  {
    "place_name": "Koallah",
    "state_code": "VIC",
    "latitude": -38.2612,
    "longitude": 143.2241
  },
  {
    "place_name": "Leslie Manor",
    "state_code": "VIC",
    "latitude": -38.1333,
    "longitude": 143.3833
  },
  {
    "place_name": "Camperdown",
    "state_code": "VIC",
    "latitude": -38.2339,
    "longitude": 143.1498
  },
  {
    "place_name": "Tandarook",
    "state_code": "VIC",
    "latitude": -38.2612,
    "longitude": 143.2241
  },
  {
    "place_name": "South Purrumbete",
    "state_code": "VIC",
    "latitude": -38.35,
    "longitude": 143.2167
  },
  {
    "place_name": "Tesbury",
    "state_code": "VIC",
    "latitude": -38.2612,
    "longitude": 143.2241
  },
  {
    "place_name": "Skibo",
    "state_code": "VIC",
    "latitude": -38.2612,
    "longitude": 143.2241
  },
  {
    "place_name": "Chocolyn",
    "state_code": "VIC",
    "latitude": -38.2612,
    "longitude": 143.2241
  },
  {
    "place_name": "Bookaar",
    "state_code": "VIC",
    "latitude": -38.2612,
    "longitude": 143.2241
  },
  {
    "place_name": "Bungador",
    "state_code": "VIC",
    "latitude": -38.2512,
    "longitude": 143.2045
  },
  {
    "place_name": "Stonyford",
    "state_code": "VIC",
    "latitude": -38.2512,
    "longitude": 143.2045
  },
  {
    "place_name": "Terang",
    "state_code": "VIC",
    "latitude": -38.2408,
    "longitude": 142.9212
  },
  {
    "place_name": "Boorcan",
    "state_code": "VIC",
    "latitude": -38.2167,
    "longitude": 143.0167
  },
  {
    "place_name": "Noorat East",
    "state_code": "VIC",
    "latitude": -38.2472,
    "longitude": 142.8397
  },
  {
    "place_name": "Kolora",
    "state_code": "VIC",
    "latitude": -38.1333,
    "longitude": 142.9167
  },
  {
    "place_name": "The Sisters",
    "state_code": "VIC",
    "latitude": -38.2,
    "longitude": 142.7833
  },
  {
    "place_name": "Ellerslie",
    "state_code": "VIC",
    "latitude": -38.15,
    "longitude": 142.7
  },
  {
    "place_name": "Taroon",
    "state_code": "VIC",
    "latitude": -38.2472,
    "longitude": 142.8397
  },
  {
    "place_name": "Dixie",
    "state_code": "VIC",
    "latitude": -38.3,
    "longitude": 142.9333
  },
  {
    "place_name": "Garvoc",
    "state_code": "VIC",
    "latitude": -38.3,
    "longitude": 142.8333
  },
  {
    "place_name": "Glenormiston South",
    "state_code": "VIC",
    "latitude": -38.1833,
    "longitude": 142.9667
  },
  {
    "place_name": "Framlingham East",
    "state_code": "VIC",
    "latitude": -38.2,
    "longitude": 142.7
  },
  {
    "place_name": "Laang",
    "state_code": "VIC",
    "latitude": -38.3667,
    "longitude": 142.8167
  },
  {
    "place_name": "Panmure",
    "state_code": "VIC",
    "latitude": -38.3333,
    "longitude": 142.7333
  },
  {
    "place_name": "Cudgee",
    "state_code": "VIC",
    "latitude": -38.35,
    "longitude": 142.65
  },
  {
    "place_name": "Noorat",
    "state_code": "VIC",
    "latitude": -38.1916,
    "longitude": 142.9287
  },
  {
    "place_name": "Glenormiston North",
    "state_code": "VIC",
    "latitude": -38.15,
    "longitude": 142.9833
  },
  {
    "place_name": "Ecklin South",
    "state_code": "VIC",
    "latitude": -38.4,
    "longitude": 142.9167
  },
  {
    "place_name": "Framlingham",
    "state_code": "VIC",
    "latitude": -38.2333,
    "longitude": 142.7167
  },
  {
    "place_name": "Jancourt East",
    "state_code": "VIC",
    "latitude": -38.4143,
    "longitude": 143.1039
  },
  {
    "place_name": "Elingamite North",
    "state_code": "VIC",
    "latitude": -38.35,
    "longitude": 143.0167
  },
  {
    "place_name": "Elingamite",
    "state_code": "VIC",
    "latitude": -38.3833,
    "longitude": 143.0167
  },
  {
    "place_name": "Simpson",
    "state_code": "VIC",
    "latitude": -38.5022,
    "longitude": 143.2501
  },
  {
    "place_name": "Bullaharre",
    "state_code": "VIC",
    "latitude": -38.3753,
    "longitude": 143.0622
  },
  {
    "place_name": "Jancourt",
    "state_code": "VIC",
    "latitude": -38.3667,
    "longitude": 143.1
  },
  {
    "place_name": "Cobrico",
    "state_code": "VIC",
    "latitude": -38.3,
    "longitude": 143.0333
  },
  {
    "place_name": "Naroghid",
    "state_code": "VIC",
    "latitude": -38.3753,
    "longitude": 143.0622
  },
  {
    "place_name": "Glenfyne",
    "state_code": "VIC",
    "latitude": -38.4,
    "longitude": 142.9833
  },
  {
    "place_name": "Cobden",
    "state_code": "VIC",
    "latitude": -38.3286,
    "longitude": 143.0748
  },
  {
    "place_name": "Scotts Creek",
    "state_code": "VIC",
    "latitude": -38.4333,
    "longitude": 143.05
  },
  {
    "place_name": "Nirranda",
    "state_code": "VIC",
    "latitude": -38.5,
    "longitude": 142.7833
  },
  {
    "place_name": "Nullawarre",
    "state_code": "VIC",
    "latitude": -38.4667,
    "longitude": 142.7667
  },
  {
    "place_name": "Timboon",
    "state_code": "VIC",
    "latitude": -38.4843,
    "longitude": 142.9803
  },
  {
    "place_name": "Newfield",
    "state_code": "VIC",
    "latitude": -38.5667,
    "longitude": 143.0167
  },
  {
    "place_name": "Ayrford",
    "state_code": "VIC",
    "latitude": -38.4249,
    "longitude": 142.8596
  },
  {
    "place_name": "Brucknell",
    "state_code": "VIC",
    "latitude": -38.45,
    "longitude": 142.9333
  },
  {
    "place_name": "Nirranda South",
    "state_code": "VIC",
    "latitude": -38.4987,
    "longitude": 142.9281
  },
  {
    "place_name": "Heytesbury Lower",
    "state_code": "VIC",
    "latitude": -38.5667,
    "longitude": 142.9333
  },
  {
    "place_name": "Curdie Vale",
    "state_code": "VIC",
    "latitude": -38.5167,
    "longitude": 142.8333
  },
  {
    "place_name": "The Cove",
    "state_code": "VIC",
    "latitude": -38.4987,
    "longitude": 142.9281
  },
  {
    "place_name": "Curdievale",
    "state_code": "VIC",
    "latitude": -38.4987,
    "longitude": 142.9281
  },
  {
    "place_name": "Cowleys Creek",
    "state_code": "VIC",
    "latitude": -38.5,
    "longitude": 143
  },
  {
    "place_name": "Curdies River",
    "state_code": "VIC",
    "latitude": -38.45,
    "longitude": 142.9667
  },
  {
    "place_name": "Cooriemungle",
    "state_code": "VIC",
    "latitude": -38.5597,
    "longitude": 143.1363
  },
  {
    "place_name": "Nirranda East",
    "state_code": "VIC",
    "latitude": -38.4987,
    "longitude": 142.9281
  },
  {
    "place_name": "Nullawarre North",
    "state_code": "VIC",
    "latitude": -38.4987,
    "longitude": 142.9281
  },
  {
    "place_name": "Timboon West",
    "state_code": "VIC",
    "latitude": -38.4987,
    "longitude": 142.9281
  },
  {
    "place_name": "Paaratte",
    "state_code": "VIC",
    "latitude": -38.4987,
    "longitude": 142.9281
  },
  {
    "place_name": "Princetown",
    "state_code": "VIC",
    "latitude": -38.6833,
    "longitude": 143.15
  },
  {
    "place_name": "Port Campbell",
    "state_code": "VIC",
    "latitude": -38.6192,
    "longitude": 142.9958
  },
  {
    "place_name": "Waarre",
    "state_code": "VIC",
    "latitude": -38.6513,
    "longitude": 143.0729
  },
  {
    "place_name": "Peterborough",
    "state_code": "VIC",
    "latitude": -38.6035,
    "longitude": 142.8733
  },
  {
    "place_name": "Dundonnell",
    "state_code": "VIC",
    "latitude": -37.85,
    "longitude": 142.9833
  },
  {
    "place_name": "Darlington",
    "state_code": "VIC",
    "latitude": -38,
    "longitude": 143.05
  },
  {
    "place_name": "Pura Pura",
    "state_code": "VIC",
    "latitude": -37.8167,
    "longitude": 143.0833
  },
  {
    "place_name": "Mortlake",
    "state_code": "VIC",
    "latitude": -38.081,
    "longitude": 142.8083
  },
  {
    "place_name": "Woorndoo",
    "state_code": "VIC",
    "latitude": -37.9,
    "longitude": 142.8167
  },
  {
    "place_name": "Hexham",
    "state_code": "VIC",
    "latitude": -38,
    "longitude": 142.7
  },
  {
    "place_name": "Caramut",
    "state_code": "VIC",
    "latitude": -37.95,
    "longitude": 142.5167
  },
  {
    "place_name": "Mailer Flat",
    "state_code": "VIC",
    "latitude": -38.2876,
    "longitude": 142.4615
  },
  {
    "place_name": "Mailors Flat",
    "state_code": "VIC",
    "latitude": -38.3,
    "longitude": 142.4667
  },
  {
    "place_name": "Minjah",
    "state_code": "VIC",
    "latitude": -38.2,
    "longitude": 142.4333
  },
  {
    "place_name": "Woolsthorpe",
    "state_code": "VIC",
    "latitude": -38.2,
    "longitude": 142.4333
  },
  {
    "place_name": "Mepunga East",
    "state_code": "VIC",
    "latitude": -38.45,
    "longitude": 142.7333
  },
  {
    "place_name": "Allansford",
    "state_code": "VIC",
    "latitude": -38.3864,
    "longitude": 142.5943
  },
  {
    "place_name": "Naringal East",
    "state_code": "VIC",
    "latitude": -38.4216,
    "longitude": 142.6902
  },
  {
    "place_name": "Naringal",
    "state_code": "VIC",
    "latitude": -38.4,
    "longitude": 142.7
  },
  {
    "place_name": "Mepunga",
    "state_code": "VIC",
    "latitude": -38.45,
    "longitude": 142.7333
  },
  {
    "place_name": "Mepunga West",
    "state_code": "VIC",
    "latitude": -38.4216,
    "longitude": 142.6902
  },
  {
    "place_name": "Purnim",
    "state_code": "VIC",
    "latitude": -38.2833,
    "longitude": 142.6333
  },
  {
    "place_name": "Purnim West",
    "state_code": "VIC",
    "latitude": -38.2833,
    "longitude": 142.6333
  },
  {
    "place_name": "Wangoom",
    "state_code": "VIC",
    "latitude": -38.3333,
    "longitude": 142.5833
  },
  {
    "place_name": "Ballangeich",
    "state_code": "VIC",
    "latitude": -38.2167,
    "longitude": 142.6667
  },
  {
    "place_name": "Warrnambool",
    "state_code": "VIC",
    "latitude": -38.3818,
    "longitude": 142.488
  },
  {
    "place_name": "Dennington",
    "state_code": "VIC",
    "latitude": -38.3667,
    "longitude": 142.45
  },
  {
    "place_name": "Grassmere",
    "state_code": "VIC",
    "latitude": -38.2833,
    "longitude": 142.5333
  },
  {
    "place_name": "Woodford",
    "state_code": "VIC",
    "latitude": -38.3167,
    "longitude": 142.4667
  },
  {
    "place_name": "Bushfield",
    "state_code": "VIC",
    "latitude": -38.3333,
    "longitude": 142.5167
  },
  {
    "place_name": "Winslow",
    "state_code": "VIC",
    "latitude": -38.2333,
    "longitude": 142.45
  },
  {
    "place_name": "Koroit",
    "state_code": "VIC",
    "latitude": -38.2918,
    "longitude": 142.3673
  },
  {
    "place_name": "Illowa",
    "state_code": "VIC",
    "latitude": -38.3333,
    "longitude": 142.4167
  },
  {
    "place_name": "Warrong",
    "state_code": "VIC",
    "latitude": -38.2333,
    "longitude": 142.3667
  },
  {
    "place_name": "Crossley",
    "state_code": "VIC",
    "latitude": -38.3,
    "longitude": 142.3333
  },
  {
    "place_name": "Tower Hill",
    "state_code": "VIC",
    "latitude": -38.3333,
    "longitude": 142.35
  },
  {
    "place_name": "Yangery",
    "state_code": "VIC",
    "latitude": -38.3167,
    "longitude": 142.4167
  },
  {
    "place_name": "Southern Cross",
    "state_code": "VIC",
    "latitude": -38.3,
    "longitude": 142.4
  },
  {
    "place_name": "Yarpturk",
    "state_code": "VIC",
    "latitude": -38.3,
    "longitude": 142.4333
  },
  {
    "place_name": "Killarney",
    "state_code": "VIC",
    "latitude": -38.35,
    "longitude": 142.3333
  },
  {
    "place_name": "Tarrone",
    "state_code": "VIC",
    "latitude": -38.2852,
    "longitude": 142.3574
  },
  {
    "place_name": "Kirkstall",
    "state_code": "VIC",
    "latitude": -38.2667,
    "longitude": 142.3167
  },
  {
    "place_name": "Willatook",
    "state_code": "VIC",
    "latitude": -38.1667,
    "longitude": 142.2667
  },
  {
    "place_name": "Port Fairy",
    "state_code": "VIC",
    "latitude": -38.3853,
    "longitude": 142.2371
  },
  {
    "place_name": "Orford",
    "state_code": "VIC",
    "latitude": -38.2035,
    "longitude": 142.1009
  },
  {
    "place_name": "Yambuk",
    "state_code": "VIC",
    "latitude": -38.3156,
    "longitude": 142.0651
  },
  {
    "place_name": "Codrington",
    "state_code": "VIC",
    "latitude": -38.2667,
    "longitude": 141.9667
  },
  {
    "place_name": "Rosebrook",
    "state_code": "VIC",
    "latitude": -38.3536,
    "longitude": 142.2545
  },
  {
    "place_name": "St Helens",
    "state_code": "VIC",
    "latitude": -38.2395,
    "longitude": 141.9049
  },
  {
    "place_name": "Narrawong",
    "state_code": "VIC",
    "latitude": -38.25,
    "longitude": 141.7167
  },
  {
    "place_name": "Toolong",
    "state_code": "VIC",
    "latitude": -38.2395,
    "longitude": 141.9049
  },
  {
    "place_name": "Tyrendarra",
    "state_code": "VIC",
    "latitude": -38.2167,
    "longitude": 141.7833
  },
  {
    "place_name": "Tyrendarra East",
    "state_code": "VIC",
    "latitude": -38.25,
    "longitude": 141.9
  },
  {
    "place_name": "Warrabkook",
    "state_code": "VIC",
    "latitude": -38,
    "longitude": 142.0167
  },
  {
    "place_name": "Macarthur",
    "state_code": "VIC",
    "latitude": -38.0339,
    "longitude": 142.0018
  },
  {
    "place_name": "Condah Swamp",
    "state_code": "VIC",
    "latitude": -38.0113,
    "longitude": 141.9617
  },
  {
    "place_name": "Knebsworth",
    "state_code": "VIC",
    "latitude": -38,
    "longitude": 141.8667
  },
  {
    "place_name": "Minhamite",
    "state_code": "VIC",
    "latitude": -37.9833,
    "longitude": 142.35
  },
  {
    "place_name": "Hawkesdale",
    "state_code": "VIC",
    "latitude": -38.1167,
    "longitude": 142.3167
  },
  {
    "place_name": "Gazette",
    "state_code": "VIC",
    "latitude": -37.8751,
    "longitude": 142.2913
  },
  {
    "place_name": "Tabor",
    "state_code": "VIC",
    "latitude": -37.8333,
    "longitude": 142.2
  },
  {
    "place_name": "Gerrigerrup",
    "state_code": "VIC",
    "latitude": -37.8751,
    "longitude": 142.2913
  },
  {
    "place_name": "Penshurst",
    "state_code": "VIC",
    "latitude": -37.8753,
    "longitude": 142.2907
  },
  {
    "place_name": "Purdeet",
    "state_code": "VIC",
    "latitude": -37.9167,
    "longitude": 142.3833
  },
  {
    "place_name": "Nelson",
    "state_code": "VIC",
    "latitude": -38.05,
    "longitude": 141.0167
  },
  {
    "place_name": "Glenthompson",
    "state_code": "VIC",
    "latitude": -37.7187,
    "longitude": 142.5402
  },
  {
    "place_name": "Narrapumelap South",
    "state_code": "VIC",
    "latitude": -37.7187,
    "longitude": 142.5402
  },
  {
    "place_name": "Nareeb",
    "state_code": "VIC",
    "latitude": -37.6555,
    "longitude": 142.0879
  },
  {
    "place_name": "Moutajup",
    "state_code": "VIC",
    "latitude": -37.6667,
    "longitude": 142.2333
  },
  {
    "place_name": "Victoria Point",
    "state_code": "VIC",
    "latitude": -37.5766,
    "longitude": 142.3021
  },
  {
    "place_name": "Mirranatwa",
    "state_code": "VIC",
    "latitude": -37.4167,
    "longitude": 142.4167
  },
  {
    "place_name": "Woodhouse",
    "state_code": "VIC",
    "latitude": -37.5766,
    "longitude": 142.3021
  },
  {
    "place_name": "Dunkeld",
    "state_code": "VIC",
    "latitude": -37.6499,
    "longitude": 142.3439
  },
  {
    "place_name": "Karabeal",
    "state_code": "VIC",
    "latitude": -37.6,
    "longitude": 142.1833
  },
  {
    "place_name": "Victoria Valley",
    "state_code": "VIC",
    "latitude": -37.55,
    "longitude": 142.3333
  },
  {
    "place_name": "Hamilton",
    "state_code": "VIC",
    "latitude": -37.7442,
    "longitude": 142.022
  },
  {
    "place_name": "Byaduk North",
    "state_code": "VIC",
    "latitude": -37.8928,
    "longitude": 141.9553
  },
  {
    "place_name": "Yatchaw",
    "state_code": "VIC",
    "latitude": -37.8167,
    "longitude": 142.1
  },
  {
    "place_name": "Wannon",
    "state_code": "VIC",
    "latitude": -37.6667,
    "longitude": 141.8333
  },
  {
    "place_name": "Croxton East",
    "state_code": "VIC",
    "latitude": -37.8,
    "longitude": 142.2167
  },
  {
    "place_name": "Mount Napier",
    "state_code": "VIC",
    "latitude": -37.7904,
    "longitude": 142.0065
  },
  {
    "place_name": "Bochara",
    "state_code": "VIC",
    "latitude": -37.7,
    "longitude": 141.9333
  },
  {
    "place_name": "Tahara",
    "state_code": "VIC",
    "latitude": -37.7333,
    "longitude": 141.7
  },
  {
    "place_name": "Tarrington",
    "state_code": "VIC",
    "latitude": -37.7667,
    "longitude": 142.1
  },
  {
    "place_name": "Hensley Park",
    "state_code": "VIC",
    "latitude": -37.7904,
    "longitude": 142.0065
  },
  {
    "place_name": "Byaduk",
    "state_code": "VIC",
    "latitude": -37.9523,
    "longitude": 141.9552
  },
  {
    "place_name": "Warrayure",
    "state_code": "VIC",
    "latitude": -37.6833,
    "longitude": 142.15
  },
  {
    "place_name": "Broadwater",
    "state_code": "VIC",
    "latitude": -38.1253,
    "longitude": 142.0497
  },
  {
    "place_name": "Morgiana",
    "state_code": "VIC",
    "latitude": -37.7904,
    "longitude": 142.0065
  },
  {
    "place_name": "Strathkellar",
    "state_code": "VIC",
    "latitude": -37.7,
    "longitude": 142.1
  },
  {
    "place_name": "Yulecart",
    "state_code": "VIC",
    "latitude": -37.7475,
    "longitude": 141.9389
  },
  {
    "place_name": "Buckley Swamp",
    "state_code": "VIC",
    "latitude": -37.7904,
    "longitude": 142.0065
  },
  {
    "place_name": "Grassdale",
    "state_code": "VIC",
    "latitude": -37.8,
    "longitude": 141.65
  },
  {
    "place_name": "Branxholme",
    "state_code": "VIC",
    "latitude": -37.8667,
    "longitude": 141.8
  },
  {
    "place_name": "Condah",
    "state_code": "VIC",
    "latitude": -37.95,
    "longitude": 141.75
  },
  {
    "place_name": "Wallacedale",
    "state_code": "VIC",
    "latitude": -37.9333,
    "longitude": 141.8
  },
  {
    "place_name": "Breakaway Creek",
    "state_code": "VIC",
    "latitude": -38.0167,
    "longitude": 141.8
  },
  {
    "place_name": "Lake Condah",
    "state_code": "VIC",
    "latitude": -38.1167,
    "longitude": 141.8
  },
  {
    "place_name": "Hotspur",
    "state_code": "VIC",
    "latitude": -37.9333,
    "longitude": 141.5667
  },
  {
    "place_name": "Heywood",
    "state_code": "VIC",
    "latitude": -38.1329,
    "longitude": 141.6295
  },
  {
    "place_name": "Drik Drik",
    "state_code": "VIC",
    "latitude": -38,
    "longitude": 141.3
  },
  {
    "place_name": "Drumborg",
    "state_code": "VIC",
    "latitude": -38.0833,
    "longitude": 141.6
  },
  {
    "place_name": "Mumbannar",
    "state_code": "VIC",
    "latitude": -37.9269,
    "longitude": 141.1875
  },
  {
    "place_name": "Myamyn",
    "state_code": "VIC",
    "latitude": -38,
    "longitude": 141.7333
  },
  {
    "place_name": "Lyons",
    "state_code": "VIC",
    "latitude": -38.0167,
    "longitude": 141.4667
  },
  {
    "place_name": "Dartmoor",
    "state_code": "VIC",
    "latitude": -37.9222,
    "longitude": 141.2749
  },
  {
    "place_name": "Greenwald",
    "state_code": "VIC",
    "latitude": -37.9667,
    "longitude": 141.3667
  },
  {
    "place_name": "Winnap",
    "state_code": "VIC",
    "latitude": -37.95,
    "longitude": 141.3167
  },
  {
    "place_name": "Bessiebelle",
    "state_code": "VIC",
    "latitude": -38.15,
    "longitude": 141.9667
  },
  {
    "place_name": "Homerton",
    "state_code": "VIC",
    "latitude": -38.1333,
    "longitude": 141.7833
  },
  {
    "place_name": "Milltown",
    "state_code": "VIC",
    "latitude": -38.05,
    "longitude": 141.7167
  },
  {
    "place_name": "Mount Richmond",
    "state_code": "VIC",
    "latitude": -38.2019,
    "longitude": 141.3416
  },
  {
    "place_name": "Cape Bridgewater",
    "state_code": "VIC",
    "latitude": -38.3705,
    "longitude": 141.3995
  },
  {
    "place_name": "Bolwarra",
    "state_code": "VIC",
    "latitude": -38.2833,
    "longitude": 141.6167
  },
  {
    "place_name": "Portland",
    "state_code": "VIC",
    "latitude": -38.3462,
    "longitude": 141.6026
  },
  {
    "place_name": "Gorae",
    "state_code": "VIC",
    "latitude": -38.2333,
    "longitude": 141.55
  },
  {
    "place_name": "Allestree",
    "state_code": "VIC",
    "latitude": -38.2833,
    "longitude": 141.65
  },
  {
    "place_name": "Gorae West",
    "state_code": "VIC",
    "latitude": -38.25,
    "longitude": 141.4833
  },
  {
    "place_name": "Cashmore",
    "state_code": "VIC",
    "latitude": -38.3116,
    "longitude": 141.4774
  },
  {
    "place_name": "Portland West",
    "state_code": "VIC",
    "latitude": -38.354,
    "longitude": 141.574
  },
  {
    "place_name": "Portland North",
    "state_code": "VIC",
    "latitude": -38.2855,
    "longitude": 141.5377
  },
  {
    "place_name": "Dutton Way",
    "state_code": "VIC",
    "latitude": -38.2855,
    "longitude": 141.5377
  },
  {
    "place_name": "Heathmere",
    "state_code": "VIC",
    "latitude": -38.2167,
    "longitude": 141.6167
  },